rosbagTimestamp,header,seq,stamp,secs,nsecs,frame_id,orientation,x,y,z,w,orientation_covariance,angular_velocity,x,y,z,angular_velocity_covariance,linear_acceleration,x,y,z,linear_acceleration_covariance
1606295379778726548,,88166,,1606295378,793511948,"""spatial""",,-0.665062240199,-0.707667190709,0.153214975106,-0.182823850047,"[-1.0, 0.0, 0.0, 0.0, 0.0, 0.0, 0.0, 0.0, 0.0]",,0.0290628429502,0.00521223479882,0.0417911335826,"[-1.0, 0.0, 0.0, 0.0, 0.0, 0.0, 0.0, 0.0, 0.0]",,-4.63103675842,0.24856941402,-8.71950912476,"[-1.0, 0.0, 0.0, 0.0, 0.0, 0.0, 0.0, 0.0, 0.0]"
1606295379778774202,,88167,,1606295378,826088559,"""spatial""",,-0.666339358198,-0.7065466904,0.153643887778,-0.182146418482,"[-1.0, 0.0, 0.0, 0.0, 0.0, 0.0, 0.0, 0.0, 0.0]",,0.0457729063928,0.0120878955349,0.063127271831,"[-1.0, 0.0, 0.0, 0.0, 0.0, 0.0, 0.0, 0.0, 0.0]",,-4.56332445145,0.199194207788,-8.72861194611,"[-1.0, 0.0, 0.0, 0.0, 0.0, 0.0, 0.0, 0.0, 0.0]"
1606295379778786424,,88168,,1606295378,878404295,"""spatial""",,-0.668239137931,-0.704858656433,0.154068571277,-0.181366247389,"[-1.0, 0.0, 0.0, 0.0, 0.0, 0.0, 0.0, 0.0, 0.0]",,0.0559549704194,0.0124276150018,0.0963680297136,"[-1.0, 0.0, 0.0, 0.0, 0.0, 0.0, 0.0, 0.0, 0.0]",,-4.50750112534,0.154300972819,-8.79048156738,"[-1.0, 0.0, 0.0, 0.0, 0.0, 0.0, 0.0, 0.0, 0.0]"
1606295379778802971,,88169,,1606295378,933207442,"""spatial""",,-0.670763011075,-0.702570637054,0.154448342041,-0.180602392395,"[-1.0, 0.0, 0.0, 0.0, 0.0, 0.0, 0.0, 0.0, 0.0]",,0.0610395632684,0.0141145531088,0.13042075932,"[-1.0, 0.0, 0.0, 0.0, 0.0, 0.0, 0.0, 0.0, 0.0]",,-4.46557044983,0.16441115737,-8.80591773987,"[-1.0, 0.0, 0.0, 0.0, 0.0, 0.0, 0.0, 0.0, 0.0]"
1606295379778839672,,88170,,1606295378,974375566,"""spatial""",,-0.673734761656,-0.699861124164,0.154740154967,-0.179809305927,"[-1.0, 0.0, 0.0, 0.0, 0.0, 0.0, 0.0, 0.0, 0.0]",,0.0648027732968,0.013716109097,0.149262487888,"[-1.0, 0.0, 0.0, 0.0, 0.0, 0.0, 0.0, 0.0, 0.0]",,-4.44554710388,0.222798615694,-8.82765197754,"[-1.0, 0.0, 0.0, 0.0, 0.0, 0.0, 0.0, 0.0, 0.0]"
1606295379778845272,,88171,,1606295379,26344064,"""spatial""",,-0.676919238576,-0.696843211589,0.155194877315,-0.179177103199,"[-1.0, 0.0, 0.0, 0.0, 0.0, 0.0, 0.0, 0.0, 0.0]",,0.0679326504469,0.00308576202951,0.164548620582,"[-1.0, 0.0, 0.0, 0.0, 0.0, 0.0, 0.0, 0.0, 0.0]",,-4.43657875061,0.240193650126,-8.89902687073,"[-1.0, 0.0, 0.0, 0.0, 0.0, 0.0, 0.0, 0.0, 0.0]"
1606295379778910802,,88172,,1606295379,78745624,"""spatial""",,-0.680149234093,-0.6936770264,0.155689905222,-0.17880120336,"[-1.0, 0.0, 0.0, 0.0, 0.0, 0.0, 0.0, 0.0, 0.0]",,0.0650845095515,-0.00418286165223,0.167837664485,"[-1.0, 0.0, 0.0, 0.0, 0.0, 0.0, 0.0, 0.0, 0.0]",,-4.47585344315,0.32378757,-8.833527565,"[-1.0, 0.0, 0.0, 0.0, 0.0, 0.0, 0.0, 0.0, 0.0]"
1606295379778972899,,88173,,1606295379,133381310,"""spatial""",,-0.683391460099,-0.690422746396,0.15652285734,-0.178306542921,"[-1.0, 0.0, 0.0, 0.0, 0.0, 0.0, 0.0, 0.0, 0.0]",,0.0794569477439,-0.011127512902,0.166914135218,"[-1.0, 0.0, 0.0, 0.0, 0.0, 0.0, 0.0, 0.0, 0.0]",,-4.46482896805,0.371209591627,-8.79932785034,"[-1.0, 0.0, 0.0, 0.0, 0.0, 0.0, 0.0, 0.0, 0.0]"
1606295379779090183,,88174,,1606295379,192827045,"""spatial""",,-0.686635495167,-0.687103268469,0.157542697146,-0.177766903234,"[-1.0, 0.0, 0.0, 0.0, 0.0, 0.0, 0.0, 0.0, 0.0]",,0.0902522951365,-0.0136995147914,0.175365135074,"[-1.0, 0.0, 0.0, 0.0, 0.0, 0.0, 0.0, 0.0, 0.0]",,-4.5078701973,0.286712884903,-8.75213813782,"[-1.0, 0.0, 0.0, 0.0, 0.0, 0.0, 0.0, 0.0, 0.0]"
1606295379779204603,,88175,,1606295379,225409744,"""spatial""",,-0.690288925542,-0.683375322466,0.158802187884,-0.176865197093,"[-1.0, 0.0, 0.0, 0.0, 0.0, 0.0, 0.0, 0.0, 0.0]",,0.106685936451,-0.00865008030087,0.185704097152,"[-1.0, 0.0, 0.0, 0.0, 0.0, 0.0, 0.0, 0.0, 0.0]",,-4.51944351196,0.332037210464,-8.79482078552,"[-1.0, 0.0, 0.0, 0.0, 0.0, 0.0, 0.0, 0.0, 0.0]"
1606295379779278726,,88176,,1606295379,274614479,"""spatial""",,-0.693756355989,-0.679817192001,0.160008524201,-0.175920571631,"[-1.0, 0.0, 0.0, 0.0, 0.0, 0.0, 0.0, 0.0, 0.0]",,0.103528127074,-0.00952498242259,0.173381373286,"[-1.0, 0.0, 0.0, 0.0, 0.0, 0.0, 0.0, 0.0, 0.0]",,-4.43240451813,0.339071452618,-8.82519054413,"[-1.0, 0.0, 0.0, 0.0, 0.0, 0.0, 0.0, 0.0, 0.0]"
1606295379779401404,,88177,,1606295379,328464127,"""spatial""",,-0.696802028191,-0.676601162238,0.161536714269,-0.174882127943,"[-1.0, 0.0, 0.0, 0.0, 0.0, 0.0, 0.0, 0.0, 0.0]",,0.109697692096,-0.0166649669409,0.148036628962,"[-1.0, 0.0, 0.0, 0.0, 0.0, 0.0, 0.0, 0.0, 0.0]",,-4.45082426071,0.323043227196,-8.82982349396,"[-1.0, 0.0, 0.0, 0.0, 0.0, 0.0, 0.0, 0.0, 0.0]"
1606295379779418218,,88178,,1606295379,388028550,"""spatial""",,-0.699378085719,-0.673762024081,0.163187462433,-0.174025700359,"[-1.0, 0.0, 0.0, 0.0, 0.0, 0.0, 0.0, 0.0, 0.0]",,0.0993924736977,-0.0232196226716,0.12632972002,"[-1.0, 0.0, 0.0, 0.0, 0.0, 0.0, 0.0, 0.0, 0.0]",,-4.51551771164,0.254069775343,-8.78513717651,"[-1.0, 0.0, 0.0, 0.0, 0.0, 0.0, 0.0, 0.0, 0.0]"
1606295379779509447,,88179,,1606295379,424627361,"""spatial""",,-0.701583248345,-0.671318984642,0.164687029193,-0.173176248738,"[-1.0, 0.0, 0.0, 0.0, 0.0, 0.0, 0.0, 0.0, 0.0]",,0.088790141046,-0.0202531535178,0.106783106923,"[-1.0, 0.0, 0.0, 0.0, 0.0, 0.0, 0.0, 0.0, 0.0]",,-4.48168134689,0.24497422576,-8.81649112701,"[-1.0, 0.0, 0.0, 0.0, 0.0, 0.0, 0.0, 0.0, 0.0]"
1606295379779530371,,88180,,1606295379,477935222,"""spatial""",,-0.703245392293,-0.669396794639,0.165848590411,-0.17276641871,"[-1.0, 0.0, 0.0, 0.0, 0.0, 0.0, 0.0, 0.0, 0.0]",,0.0589397959411,-0.0211094543338,0.0814701244235,"[-1.0, 0.0, 0.0, 0.0, 0.0, 0.0, 0.0, 0.0, 0.0]",,-4.51989507675,0.280796706676,-8.8153295517,"[-1.0, 0.0, 0.0, 0.0, 0.0, 0.0, 0.0, 0.0, 0.0]"
1606295379779564362,,88181,,1606295379,528868645,"""spatial""",,-0.704504271243,-0.667851822881,0.166950866489,-0.172554789834,"[-1.0, 0.0, 0.0, 0.0, 0.0, 0.0, 0.0, 0.0, 0.0]",,0.0505917519331,-0.0230323784053,0.0628261268139,"[-1.0, 0.0, 0.0, 0.0, 0.0, 0.0, 0.0, 0.0, 0.0]",,-4.54918003082,0.287204444408,-8.725481987,"[-1.0, 0.0, 0.0, 0.0, 0.0, 0.0, 0.0, 0.0, 0.0]"
1606295379779575855,,88182,,1606295379,588262880,"""spatial""",,-0.705458190085,-0.666728642296,0.167806389892,-0.172170636786,"[-1.0, 0.0, 0.0, 0.0, 0.0, 0.0, 0.0, 0.0, 0.0]",,0.0443709455431,-0.0109949717298,0.0452663861215,"[-1.0, 0.0, 0.0, 0.0, 0.0, 0.0, 0.0, 0.0, 0.0]",,-4.55686473846,0.216758787632,-8.7463312149,"[-1.0, 0.0, 0.0, 0.0, 0.0, 0.0, 0.0, 0.0, 0.0]"
1606295379779592466,,88183,,1606295379,624765566,"""spatial""",,-0.706367308144,-0.665680776811,0.168447093441,-0.17187151237,"[-1.0, 0.0, 0.0, 0.0, 0.0, 0.0, 0.0, 0.0, 0.0]",,0.033742018044,-0.00642607081681,0.0472623370588,"[-1.0, 0.0, 0.0, 0.0, 0.0, 0.0, 0.0, 0.0, 0.0]",,-4.53923511505,0.112498812377,-8.71214103699,"[-1.0, 0.0, 0.0, 0.0, 0.0, 0.0, 0.0, 0.0, 0.0]"
1606295379779721194,,88184,,1606295379,693317401,"""spatial""",,-0.707276652742,-0.664697759522,0.168747322565,-0.171642300686,"[-1.0, 0.0, 0.0, 0.0, 0.0, 0.0, 0.0, 0.0, 0.0]",,0.0218444373459,0.000412909837905,0.0467169508338,"[-1.0, 0.0, 0.0, 0.0, 0.0, 0.0, 0.0, 0.0, 0.0]",,-4.50013065338,0.0224058367312,-8.76850509644,"[-1.0, 0.0, 0.0, 0.0, 0.0, 0.0, 0.0, 0.0, 0.0]"
1606295379779746838,,88185,,1606295379,728088350,"""spatial""",,-0.707981689176,-0.663806602605,0.169190028452,-0.171748220326,"[-1.0, 0.0, 0.0, 0.0, 0.0, 0.0, 0.0, 0.0, 0.0]",,0.0155818387866,-0.0230704620481,0.0387481302023,"[-1.0, 0.0, 0.0, 0.0, 0.0, 0.0, 0.0, 0.0, 0.0]",,-4.41032838821,0.126412689686,-8.9597196579,"[-1.0, 0.0, 0.0, 0.0, 0.0, 0.0, 0.0, 0.0, 0.0]"
1606295379779900557,,88186,,1606295379,783667910,"""spatial""",,-0.708476722351,-0.662760878708,0.170335668616,-0.172610877494,"[-1.0, 0.0, 0.0, 0.0, 0.0, 0.0, 0.0, 0.0, 0.0]",,0.0135184265673,-0.0643201693892,0.040147472173,"[-1.0, 0.0, 0.0, 0.0, 0.0, 0.0, 0.0, 0.0, 0.0]",,-4.51020908356,0.245190754533,-8.98273944855,"[-1.0, 0.0, 0.0, 0.0, 0.0, 0.0, 0.0, 0.0, 0.0]"
1606295379779984524,,88187,,1606295379,832926158,"""spatial""",,-0.708368054604,-0.66204431116,0.172132830734,-0.174018203489,"[-1.0, 0.0, 0.0, 0.0, 0.0, 0.0, 0.0, 0.0, 0.0]",,0.00390343298204,-0.0941939353943,0.00126239983365,"[-1.0, 0.0, 0.0, 0.0, 0.0, 0.0, 0.0, 0.0, 0.0]",,-4.64389228821,0.374440848827,-8.7544708252,"[-1.0, 0.0, 0.0, 0.0, 0.0, 0.0, 0.0, 0.0, 0.0]"
1606295379786875453,,88188,,1606295379,888471519,"""spatial""",,-0.707424297104,-0.662205907446,0.173516314124,-0.17585846932,"[-1.0, 0.0, 0.0, 0.0, 0.0, 0.0, 0.0, 0.0, 0.0]",,-0.0281762629747,-0.0860629975796,-0.0308442022651,"[-1.0, 0.0, 0.0, 0.0, 0.0, 0.0, 0.0, 0.0, 0.0]",,-4.74219655991,0.295982837677,-8.53895282745,"[-1.0, 0.0, 0.0, 0.0, 0.0, 0.0, 0.0, 0.0, 0.0]"
1606295379817482407,,88189,,1606295379,925412405,"""spatial""",,-0.706661979152,-0.662468026599,0.174301300083,-0.177155727338,"[-1.0, 0.0, 0.0, 0.0, 0.0, 0.0, 0.0, 0.0, 0.0]",,-0.0232128240168,-0.0506862401962,-0.0212676748633,"[-1.0, 0.0, 0.0, 0.0, 0.0, 0.0, 0.0, 0.0, 0.0]",,-4.79151344299,0.209924712777,-8.58504295349,"[-1.0, 0.0, 0.0, 0.0, 0.0, 0.0, 0.0, 0.0, 0.0]"
1606295379876341771,,88190,,1606295379,984062677,"""spatial""",,-0.706407262039,-0.662343759251,0.175003486007,-0.177941999517,"[-1.0, 0.0, 0.0, 0.0, 0.0, 0.0, 0.0, 0.0, 0.0]",,-0.00142590177711,-0.0371137484908,0.00227373582311,"[-1.0, 0.0, 0.0, 0.0, 0.0, 0.0, 0.0, 0.0, 0.0]",,-4.78102588654,0.183809712529,-8.6414308548,"[-1.0, 0.0, 0.0, 0.0, 0.0, 0.0, 0.0, 0.0, 0.0]"
1606295379925335122,,88191,,1606295380,33425075,"""spatial""",,-0.707066162161,-0.661392612881,0.1757366185,-0.178140417743,"[-1.0, 0.0, 0.0, 0.0, 0.0, 0.0, 0.0, 0.0, 0.0]",,0.0275279805064,-0.0203343573958,0.0483024567366,"[-1.0, 0.0, 0.0, 0.0, 0.0, 0.0, 0.0, 0.0, 0.0]",,-4.76125049591,0.129842609167,-8.60596847534,"[-1.0, 0.0, 0.0, 0.0, 0.0, 0.0, 0.0, 0.0, 0.0]"
1606295379981208121,,88192,,1606295380,88699861,"""spatial""",,-0.708275924228,-0.659963602909,0.176428921646,-0.177949788535,"[-1.0, 0.0, 0.0, 0.0, 0.0, 0.0, 0.0, 0.0, 0.0]",,0.0397387705743,-0.0141013553366,0.0675966516137,"[-1.0, 0.0, 0.0, 0.0, 0.0, 0.0, 0.0, 0.0, 0.0]",,-4.73173427582,0.218116879463,-8.67575263977,"[-1.0, 0.0, 0.0, 0.0, 0.0, 0.0, 0.0, 0.0, 0.0]"
1606295380017491023,,88193,,1606295380,125305334,"""spatial""",,-0.709374729447,-0.658684830646,0.176945855542,-0.177797846347,"[-1.0, 0.0, 0.0, 0.0, 0.0, 0.0, 0.0, 0.0, 0.0]",,0.0291873440146,-0.00579708442092,0.0554428584874,"[-1.0, 0.0, 0.0, 0.0, 0.0, 0.0, 0.0, 0.0, 0.0]",,-4.77383708954,0.284802824259,-8.67240333557,"[-1.0, 0.0, 0.0, 0.0, 0.0, 0.0, 0.0, 0.0, 0.0]"
1606295380076248256,,88194,,1606295380,183239957,"""spatial""",,-0.710245662461,-0.657803698095,0.177029641007,-0.177498985514,"[-1.0, 0.0, 0.0, 0.0, 0.0, 0.0, 0.0, 0.0, 0.0]",,0.0212345868349,0.00854088552296,0.040240097791,"[-1.0, 0.0, 0.0, 0.0, 0.0, 0.0, 0.0, 0.0, 0.0]",,-4.72776460648,0.28085938096,-8.63343048096,"[-1.0, 0.0, 0.0, 0.0, 0.0, 0.0, 0.0, 0.0, 0.0]"
1606295380120095292,,88195,,1606295380,228338756,"""spatial""",,-0.710906867489,-0.657159351806,0.177227779763,-0.177040884996,"[-1.0, 0.0, 0.0, 0.0, 0.0, 0.0, 0.0, 0.0, 0.0]",,0.0241295546293,0.0112651931122,0.0273358058184,"[-1.0, 0.0, 0.0, 0.0, 0.0, 0.0, 0.0, 0.0, 0.0]",,-4.78209495544,0.250775367022,-8.62553310394,"[-1.0, 0.0, 0.0, 0.0, 0.0, 0.0, 0.0, 0.0, 0.0]"
1606295380180523398,,88196,,1606295380,287776028,"""spatial""",,-0.711572271396,-0.656700130282,0.176998396363,-0.176299141786,"[-1.0, 0.0, 0.0, 0.0, 0.0, 0.0, 0.0, 0.0, 0.0]",,0.0209224876016,0.0367822721601,0.0276432689279,"[-1.0, 0.0, 0.0, 0.0, 0.0, 0.0, 0.0, 0.0, 0.0]",,-4.81126356125,0.193680033088,-8.58989429474,"[-1.0, 0.0, 0.0, 0.0, 0.0, 0.0, 0.0, 0.0, 0.0]"
1606295380231019530,,88197,,1606295380,338634239,"""spatial""",,-0.712469870195,-0.656277779347,0.176234612944,-0.175007486623,"[-1.0, 0.0, 0.0, 0.0, 0.0, 0.0, 0.0, 0.0, 0.0]",,0.0247874800116,0.0656391307712,0.0299968607724,"[-1.0, 0.0, 0.0, 0.0, 0.0, 0.0, 0.0, 0.0, 0.0]",,-4.73558235168,0.20674495399,-8.59943199158,"[-1.0, 0.0, 0.0, 0.0, 0.0, 0.0, 0.0, 0.0, 0.0]"
1606295380270932404,,88198,,1606295380,378418262,"""spatial""",,-0.713561663232,-0.655759014862,0.175339737351,-0.17339523586,"[-1.0, 0.0, 0.0, 0.0, 0.0, 0.0, 0.0, 0.0, 0.0]",,0.0316009372473,0.0782130584121,0.0404034517705,"[-1.0, 0.0, 0.0, 0.0, 0.0, 0.0, 0.0, 0.0, 0.0]",,-4.72486066818,0.167883515358,-8.6389799118,"[-1.0, 0.0, 0.0, 0.0, 0.0, 0.0, 0.0, 0.0, 0.0]"
1606295380320527283,,88199,,1606295380,427335910,"""spatial""",,-0.714990707449,-0.655110698867,0.173884898275,-0.171412978366,"[-1.0, 0.0, 0.0, 0.0, 0.0, 0.0, 0.0, 0.0, 0.0]",,0.0290868300945,0.10815961659,0.052894782275,"[-1.0, 0.0, 0.0, 0.0, 0.0, 0.0, 0.0, 0.0, 0.0]",,-4.71344900131,0.16147275269,-8.68048095703,"[-1.0, 0.0, 0.0, 0.0, 0.0, 0.0, 0.0, 0.0, 0.0]"
1606295380380611744,,88200,,1606295380,488809083,"""spatial""",,-0.716490387149,-0.654530326227,0.172043849846,-0.169211638261,"[-1.0, 0.0, 0.0, 0.0, 0.0, 0.0, 0.0, 0.0, 0.0]",,0.0250570010394,0.120952107012,0.0492040887475,"[-1.0, 0.0, 0.0, 0.0, 0.0, 0.0, 0.0, 0.0, 0.0]",,-4.61553812027,0.20434653759,-8.81988239288,"[-1.0, 0.0, 0.0, 0.0, 0.0, 0.0, 0.0, 0.0, 0.0]"
1606295380421980421,,88201,,1606295380,524685369,"""spatial""",,-0.717649285872,-0.65429065027,0.17018629681,-0.167092657214,"[-1.0, 0.0, 0.0, 0.0, 0.0, 0.0, 0.0, 0.0, 0.0]",,0.0165792405605,0.117608472705,0.033152885735,"[-1.0, 0.0, 0.0, 0.0, 0.0, 0.0, 0.0, 0.0, 0.0]",,-4.60902547836,0.122453846037,-8.99341011047,"[-1.0, 0.0, 0.0, 0.0, 0.0, 0.0, 0.0, 0.0, 0.0]"
1606295380491600474,,88202,,1606295380,578347917,"""spatial""",,-0.718807249461,-0.653992229509,0.168199793844,-0.165285058729,"[-1.0, 0.0, 0.0, 0.0, 0.0, 0.0, 0.0, 0.0, 0.0]",,0.00527662876993,0.114852152765,0.0392341017723,"[-1.0, 0.0, 0.0, 0.0, 0.0, 0.0, 0.0, 0.0, 0.0]",,-4.65082740784,0.058552403003,-8.98634529114,"[-1.0, 0.0, 0.0, 0.0, 0.0, 0.0, 0.0, 0.0, 0.0]"
1606295380520786083,,88203,,1606295380,627366453,"""spatial""",,-0.719985951934,-0.653746405381,0.165672522363,-0.163672076693,"[-1.0, 0.0, 0.0, 0.0, 0.0, 0.0, 0.0, 0.0, 0.0]",,-0.0179694145918,0.119550459087,0.0411321409047,"[-1.0, 0.0, 0.0, 0.0, 0.0, 0.0, 0.0, 0.0, 0.0]",,-4.46262693405,0.182439446449,-9.1097984314,"[-1.0, 0.0, 0.0, 0.0, 0.0, 0.0, 0.0, 0.0, 0.0]"
1606295380574757753,,88204,,1606295380,683469363,"""spatial""",,-0.721048360716,-0.653262082774,0.163688835828,-0.162923235526,"[-1.0, 0.0, 0.0, 0.0, 0.0, 0.0, 0.0, 0.0, 0.0]",,-0.0196959320456,0.0794122815132,0.0577542111278,"[-1.0, 0.0, 0.0, 0.0, 0.0, 0.0, 0.0, 0.0, 0.0]",,-4.51723861694,0.092816002667,-9.06366252899,"[-1.0, 0.0, 0.0, 0.0, 0.0, 0.0, 0.0, 0.0, 0.0]"
1606295380631453701,,88205,,1606295380,737945011,"""spatial""",,-0.723020435465,-0.651594139683,0.162422840286,-0.162127259725,"[-1.0, 0.0, 0.0, 0.0, 0.0, 0.0, 0.0, 0.0, 0.0]",,0.0202065631747,0.0565188638866,0.11390671134,"[-1.0, 0.0, 0.0, 0.0, 0.0, 0.0, 0.0, 0.0, 0.0]",,-4.6636095047,0.0218170899898,-9.07999324799,"[-1.0, 0.0, 0.0, 0.0, 0.0, 0.0, 0.0, 0.0, 0.0]"
1606295380667505844,,88206,,1606295380,774494735,"""spatial""",,-0.726136567978,-0.648549656813,0.161665699904,-0.161162132363,"[-1.0, 0.0, 0.0, 0.0, 0.0, 0.0, 0.0, 0.0, 0.0]",,0.0481383688748,0.0564480125904,0.17736877501,"[-1.0, 0.0, 0.0, 0.0, 0.0, 0.0, 0.0, 0.0, 0.0]",,-4.6503033638,0.0500475279987,-8.91484546661,"[-1.0, 0.0, 0.0, 0.0, 0.0, 0.0, 0.0, 0.0, 0.0]"
1606295380724271543,,88207,,1606295380,826473295,"""spatial""",,-0.729969628921,-0.644803334084,0.160893559988,-0.159644518293,"[-1.0, 0.0, 0.0, 0.0, 0.0, 0.0, 0.0, 0.0, 0.0]",,0.074727781117,0.0628887042403,0.203704565763,"[-1.0, 0.0, 0.0, 0.0, 0.0, 0.0, 0.0, 0.0, 0.0]",,-4.39700603485,0.148644015193,-8.80647468567,"[-1.0, 0.0, 0.0, 0.0, 0.0, 0.0, 0.0, 0.0, 0.0]"
1606295380771233780,,88208,,1606295380,878880093,"""spatial""",,-0.733754073474,-0.640876180302,0.160664223303,-0.158334420262,"[-1.0, 0.0, 0.0, 0.0, 0.0, 0.0, 0.0, 0.0, 0.0]",,0.0773979723454,0.0334242209792,0.199042677879,"[-1.0, 0.0, 0.0, 0.0, 0.0, 0.0, 0.0, 0.0, 0.0]",,-4.17985725403,0.196514561772,-8.83530139923,"[-1.0, 0.0, 0.0, 0.0, 0.0, 0.0, 0.0, 0.0, 0.0]"
1606295380825976441,,88209,,1606295380,933689541,"""spatial""",,-0.736509270913,-0.63761109029,0.161270225673,-0.158108139924,"[-1.0, 0.0, 0.0, 0.0, 0.0, 0.0, 0.0, 0.0, 0.0]",,0.0498231612146,-0.0149058559909,0.151589289308,"[-1.0, 0.0, 0.0, 0.0, 0.0, 0.0, 0.0, 0.0, 0.0]",,-4.30518484116,0.140137299895,-8.63721370697,"[-1.0, 0.0, 0.0, 0.0, 0.0, 0.0, 0.0, 0.0, 0.0]"
1606295380870914007,,88210,,1606295380,974708190,"""spatial""",,-0.738669491828,-0.635018105534,0.161347000273,-0.158387695854,"[-1.0, 0.0, 0.0, 0.0, 0.0, 0.0, 0.0, 0.0, 0.0]",,0.0160089433193,-0.0060647460632,0.130935654044,"[-1.0, 0.0, 0.0, 0.0, 0.0, 0.0, 0.0, 0.0, 0.0]",,-4.45418643951,0.189004272223,-8.60632038116,"[-1.0, 0.0, 0.0, 0.0, 0.0, 0.0, 0.0, 0.0, 0.0]"
1606295380923691680,,88211,,1606295381,26545013,"""spatial""",,-0.740830344947,-0.632590800039,0.160584971834,-0.158782288068,"[-1.0, 0.0, 0.0, 0.0, 0.0, 0.0, 0.0, 0.0, 0.0]",,-0.00785399321467,0.0191706381738,0.133744582534,"[-1.0, 0.0, 0.0, 0.0, 0.0, 0.0, 0.0, 0.0, 0.0]",,-4.47274827957,0.333558648825,-8.74810218811,"[-1.0, 0.0, 0.0, 0.0, 0.0, 0.0, 0.0, 0.0, 0.0]"
1606295380976938961,,88212,,1606295381,82902835,"""spatial""",,-0.742952317597,-0.630521426656,0.159065255691,-0.158628057829,"[-1.0, 0.0, 0.0, 0.0, 0.0, 0.0, 0.0, 0.0, 0.0]",,-0.00642653461546,0.0591111928225,0.120245091617,"[-1.0, 0.0, 0.0, 0.0, 0.0, 0.0, 0.0, 0.0, 0.0]",,-4.33757734299,0.403950691223,-8.8507194519,"[-1.0, 0.0, 0.0, 0.0, 0.0, 0.0, 0.0, 0.0, 0.0]"
1606295381284283592,,88213,,1606295381,133604071,"""spatial""",,-0.744972326484,-0.628553679861,0.157701834344,-0.158324866346,"[-1.0, 0.0, 0.0, 0.0, 0.0, 0.0, 0.0, 0.0, 0.0]",,-0.00383985228837,0.0495071858168,0.114051029086,"[-1.0, 0.0, 0.0, 0.0, 0.0, 0.0, 0.0, 0.0, 0.0]",,-4.29444169998,0.467338204384,-9.00788021088,"[-1.0, 0.0, 0.0, 0.0, 0.0, 0.0, 0.0, 0.0, 0.0]"
1606295381352409651,,88214,,1606295381,193022181,"""spatial""",,-0.74661514215,-0.627014461148,0.156291378863,-0.158088054399,"[-1.0, 0.0, 0.0, 0.0, 0.0, 0.0, 0.0, 0.0, 0.0]",,-0.0119838118553,0.0531901419163,0.0816456153989,"[-1.0, 0.0, 0.0, 0.0, 0.0, 0.0, 0.0, 0.0, 0.0]",,-4.28402996063,0.558735609055,-8.96200180054,"[-1.0, 0.0, 0.0, 0.0, 0.0, 0.0, 0.0, 0.0, 0.0]"
1606295381352415730,,88215,,1606295381,225754867,"""spatial""",,-0.747298305686,-0.626622195161,0.155009862775,-0.157676489435,"[-1.0, 0.0, 0.0, 0.0, 0.0, 0.0, 0.0, 0.0, 0.0]",,-0.0149429775774,0.0481221713126,0.0229729246348,"[-1.0, 0.0, 0.0, 0.0, 0.0, 0.0, 0.0, 0.0, 0.0]",,-4.19994258881,0.674462795258,-9.02343177795,"[-1.0, 0.0, 0.0, 0.0, 0.0, 0.0, 0.0, 0.0, 0.0]"
1606295381352439540,,88216,,1606295381,277976078,"""spatial""",,-0.747230744288,-0.626887340985,0.15447513476,-0.157467346648,"[-1.0, 0.0, 0.0, 0.0, 0.0, 0.0, 0.0, 0.0, 0.0]",,-0.00892413593829,0.0202252436429,-0.0157769620419,"[-1.0, 0.0, 0.0, 0.0, 0.0, 0.0, 0.0, 0.0, 0.0]",,-4.19354104996,0.692938387394,-8.95397377014,"[-1.0, 0.0, 0.0, 0.0, 0.0, 0.0, 0.0, 0.0, 0.0]"
1606295381352452159,,88217,,1606295381,328830801,"""spatial""",,-0.746504153693,-0.627797186077,0.15447258504,-0.157291025143,"[-1.0, 0.0, 0.0, 0.0, 0.0, 0.0, 0.0, 0.0, 0.0]",,-0.00946602318436,0.00698349159211,-0.0510334409773,"[-1.0, 0.0, 0.0, 0.0, 0.0, 0.0, 0.0, 0.0, 0.0]",,-4.24855518341,0.483148157597,-8.86688137054,"[-1.0, 0.0, 0.0, 0.0, 0.0, 0.0, 0.0, 0.0, 0.0]"
1606295381448912894,,88218,,1606295381,388662199,"""spatial""",,-0.745443812742,-0.629076774935,0.154364246402,-0.157313763532,"[-1.0, 0.0, 0.0, 0.0, 0.0, 0.0, 0.0, 0.0, 0.0]",,-0.0224427171052,0.00986064877361,-0.0717401280999,"[-1.0, 0.0, 0.0, 0.0, 0.0, 0.0, 0.0, 0.0, 0.0]",,-4.33038663864,0.56632733345,-8.77398300171,"[-1.0, 0.0, 0.0, 0.0, 0.0, 0.0, 0.0, 0.0, 0.0]"
1606295381448958833,,88219,,1606295381,424896560,"""spatial""",,-0.743904862715,-0.631044274117,0.154046457353,-0.157030180273,"[-1.0, 0.0, 0.0, 0.0, 0.0, 0.0, 0.0, 0.0, 0.0]",,-0.0255522951484,0.0259580146521,-0.1046737656,"[-1.0, 0.0, 0.0, 0.0, 0.0, 0.0, 0.0, 0.0, 0.0]",,-4.29447174072,0.551394760609,-8.68900108337,"[-1.0, 0.0, 0.0, 0.0, 0.0, 0.0, 0.0, 0.0, 0.0]"
1606295381500978639,,88220,,1606295381,478224333,"""spatial""",,-0.742185745448,-0.633283062026,0.153607240764,-0.156581425984,"[-1.0, 0.0, 0.0, 0.0, 0.0, 0.0, 0.0, 0.0, 0.0]",,-0.0202580597252,0.0286401193589,-0.110960252583,"[-1.0, 0.0, 0.0, 0.0, 0.0, 0.0, 0.0, 0.0, 0.0]",,-4.04979753494,0.531425654888,-8.81979560852,"[-1.0, 0.0, 0.0, 0.0, 0.0, 0.0, 0.0, 0.0, 0.0]"
1606295381500987837,,88221,,1606295381,532919731,"""spatial""",,-0.740392291677,-0.635515011609,0.153837541928,-0.155800855566,"[-1.0, 0.0, 0.0, 0.0, 0.0, 0.0, 0.0, 0.0, 0.0]",,0.00315076927654,0.0216767378151,-0.118250019848,"[-1.0, 0.0, 0.0, 0.0, 0.0, 0.0, 0.0, 0.0, 0.0]",,-4.32602787018,0.449412882328,-8.96861362457,"[-1.0, 0.0, 0.0, 0.0, 0.0, 0.0, 0.0, 0.0, 0.0]"
1606295381555952751,,88222,,1606295381,588451966,"""spatial""",,-0.738591678209,-0.637924647038,0.153287803625,-0.155040164055,"[-1.0, 0.0, 0.0, 0.0, 0.0, 0.0, 0.0, 0.0, 0.0]",,-0.0276015289128,0.0469081513584,-0.122527055442,"[-1.0, 0.0, 0.0, 0.0, 0.0, 0.0, 0.0, 0.0, 0.0]",,-4.19620037079,0.332992196083,-8.77871131897,"[-1.0, 0.0, 0.0, 0.0, 0.0, 0.0, 0.0, 0.0, 0.0]"
1606295381592810414,,88223,,1606295381,625020665,"""spatial""",,-0.736552940316,-0.640637650213,0.152482141015,-0.154345335637,"[-1.0, 0.0, 0.0, 0.0, 0.0, 0.0, 0.0, 0.0, 0.0]",,-0.0298121199012,0.0506503358483,-0.131375446916,"[-1.0, 0.0, 0.0, 0.0, 0.0, 0.0, 0.0, 0.0, 0.0]",,-4.10331583023,0.350795835257,-8.71427536011,"[-1.0, 0.0, 0.0, 0.0, 0.0, 0.0, 0.0, 0.0, 0.0]"
1606295381618842530,,88224,,1606295381,693523912,"""spatial""",,-0.734352548186,-0.643629391571,0.151668759028,-0.153180365628,"[-1.0, 0.0, 0.0, 0.0, 0.0, 0.0, 0.0, 0.0, 0.0]",,-0.0181516315788,0.0611487440765,-0.1482681036,"[-1.0, 0.0, 0.0, 0.0, 0.0, 0.0, 0.0, 0.0, 0.0]",,-3.9992017746,0.171524092555,-8.79241752625,"[-1.0, 0.0, 0.0, 0.0, 0.0, 0.0, 0.0, 0.0, 0.0]"
1606295381692846323,,88225,,1606295381,728121373,"""spatial""",,-0.732842281724,-0.645855732989,0.15050725922,-0.152184494702,"[-1.0, 0.0, 0.0, 0.0, 0.0, 0.0, 0.0, 0.0, 0.0]",,-0.0264196563512,0.0708684176207,-0.0930307209492,"[-1.0, 0.0, 0.0, 0.0, 0.0, 0.0, 0.0, 0.0, 0.0]",,-4.0746512413,-0.0246511604637,-8.66925144196,"[-1.0, 0.0, 0.0, 0.0, 0.0, 0.0, 0.0, 0.0, 0.0]"
1606295381721467842,,88226,,1606295381,784086334,"""spatial""",,-0.731939846575,-0.647461346159,0.149303060867,-0.150885949971,"[-1.0, 0.0, 0.0, 0.0, 0.0, 0.0, 0.0, 0.0, 0.0]",,-0.0118620181456,0.0762411132455,-0.0723446160555,"[-1.0, 0.0, 0.0, 0.0, 0.0, 0.0, 0.0, 0.0, 0.0]",,-4.06853199005,0.163022518158,-8.96677684784,"[-1.0, 0.0, 0.0, 0.0, 0.0, 0.0, 0.0, 0.0, 0.0]"
1606295381744382157,,88227,,1606295381,833406619,"""spatial""",,-0.730826772013,-0.648965374887,0.148478706211,-0.150633178692,"[-1.0, 0.0, 0.0, 0.0, 0.0, 0.0, 0.0, 0.0, 0.0]",,-0.0430069714785,0.0416792817414,-0.0537942200899,"[-1.0, 0.0, 0.0, 0.0, 0.0, 0.0, 0.0, 0.0, 0.0]",,-4.03472089767,-0.277122527361,-9.15241241455,"[-1.0, 0.0, 0.0, 0.0, 0.0, 0.0, 0.0, 0.0, 0.0]"
1606295381781054901,,88228,,1606295381,888818430,"""spatial""",,-0.731372768631,-0.648932979766,0.146096230147,-0.150451904109,"[-1.0, 0.0, 0.0, 0.0, 0.0, 0.0, 0.0, 0.0, 0.0]",,-0.0491764657199,0.0665512979031,0.0388884618878,"[-1.0, 0.0, 0.0, 0.0, 0.0, 0.0, 0.0, 0.0, 0.0]",,-3.79459404945,0.389716714621,-9.3694858551,"[-1.0, 0.0, 0.0, 0.0, 0.0, 0.0, 0.0, 0.0, 0.0]"
1606295381817547289,,88229,,1606295381,925317278,"""spatial""",,-0.731674653336,-0.648447334801,0.146546448051,-0.150640358473,"[-1.0, 0.0, 0.0, 0.0, 0.0, 0.0, 0.0, 0.0, 0.0]",,0.0209840703756,-0.0327600948513,0.00934438593686,"[-1.0, 0.0, 0.0, 0.0, 0.0, 0.0, 0.0, 0.0, 0.0]",,-3.72913789749,0.363330066204,-9.29830169678,"[-1.0, 0.0, 0.0, 0.0, 0.0, 0.0, 0.0, 0.0, 0.0]"
1606295381875238250,,88230,,1606295381,984131376,"""spatial""",,-0.731931058957,-0.6477212447,0.148230546144,-0.150870591313,"[-1.0, 0.0, 0.0, 0.0, 0.0, 0.0, 0.0, 0.0, 0.0]",,0.0465702787042,-0.0624612420797,0.0228923801333,"[-1.0, 0.0, 0.0, 0.0, 0.0, 0.0, 0.0, 0.0, 0.0]",,-3.74143767357,0.16244764626,-9.1191368103,"[-1.0, 0.0, 0.0, 0.0, 0.0, 0.0, 0.0, 0.0, 0.0]"
1606295381970578909,,88231,,1606295382,33454624,"""spatial""",,-0.731780700075,-0.646980113443,0.151335150156,-0.151695401208,"[-1.0, 0.0, 0.0, 0.0, 0.0, 0.0, 0.0, 0.0, 0.0]",,0.053508207202,-0.121171161532,-0.00356057006866,"[-1.0, 0.0, 0.0, 0.0, 0.0, 0.0, 0.0, 0.0, 0.0]",,-3.98764920235,0.116426661611,-8.91130161285,"[-1.0, 0.0, 0.0, 0.0, 0.0, 0.0, 0.0, 0.0, 0.0]"
1606295382002561114,,88232,,1606295382,92976297,"""spatial""",,-0.731638862759,-0.64618671219,0.153859320386,-0.153214293862,"[-1.0, 0.0, 0.0, 0.0, 0.0, 0.0, 0.0, 0.0, 0.0]",,0.0153140695766,-0.114251814783,0.0205742046237,"[-1.0, 0.0, 0.0, 0.0, 0.0, 0.0, 0.0, 0.0, 0.0]",,-4.18738365173,0.275076061487,-8.91083049774,"[-1.0, 0.0, 0.0, 0.0, 0.0, 0.0, 0.0, 0.0, 0.0]"
1606295382018085208,,88233,,1606295382,125522208,"""spatial""",,-0.731809091246,-0.644802317291,0.156689353073,-0.155350592922,"[-1.0, 0.0, 0.0, 0.0, 0.0, 0.0, 0.0, 0.0, 0.0]",,0.0251193102449,-0.142212033272,0.0397015884519,"[-1.0, 0.0, 0.0, 0.0, 0.0, 0.0, 0.0, 0.0, 0.0]",,-4.34688901901,0.479442507029,-8.79708480835,"[-1.0, 0.0, 0.0, 0.0, 0.0, 0.0, 0.0, 0.0, 0.0]"
1606295382080445823,,88234,,1606295382,183483281,"""spatial""",,-0.732423729274,-0.64310458955,0.159821639971,-0.156297952372,"[-1.0, 0.0, 0.0, 0.0, 0.0, 0.0, 0.0, 0.0, 0.0]",,0.078394241631,-0.111445531249,0.0530938729644,"[-1.0, 0.0, 0.0, 0.0, 0.0, 0.0, 0.0, 0.0, 0.0]",,-4.46853113174,0.434712290764,-8.88490867615,"[-1.0, 0.0, 0.0, 0.0, 0.0, 0.0, 0.0, 0.0, 0.0]"
1606295382120694118,,88235,,1606295382,228905779,"""spatial""",,-0.732803056179,-0.641644448862,0.163768385947,-0.156435341385,"[-1.0, 0.0, 0.0, 0.0, 0.0, 0.0, 0.0, 0.0, 0.0]",,0.101148813963,-0.126596599817,0.0207299478352,"[-1.0, 0.0, 0.0, 0.0, 0.0, 0.0, 0.0, 0.0, 0.0]",,-4.40148210526,0.257785826921,-9.04019451141,"[-1.0, 0.0, 0.0, 0.0, 0.0, 0.0, 0.0, 0.0, 0.0]"
1606295382179554759,,88236,,1606295382,288248364,"""spatial""",,-0.732794063095,-0.640502917275,0.167259796633,-0.157458111055,"[-1.0, 0.0, 0.0, 0.0, 0.0, 0.0, 0.0, 0.0, 0.0]",,0.0584039837122,-0.134308278561,0.0162946525961,"[-1.0, 0.0, 0.0, 0.0, 0.0, 0.0, 0.0, 0.0, 0.0]",,-4.41577959061,0.296576976776,-8.77775192261,"[-1.0, 0.0, 0.0, 0.0, 0.0, 0.0, 0.0, 0.0, 0.0]"
1606295382216253323,,88237,,1606295382,324599988,"""spatial""",,-0.732144622307,-0.640006891015,0.170981877021,-0.158494789186,"[-1.0, 0.0, 0.0, 0.0, 0.0, 0.0, 0.0, 0.0, 0.0]",,0.0606818348169,-0.138838931918,-0.0267632827163,"[-1.0, 0.0, 0.0, 0.0, 0.0, 0.0, 0.0, 0.0, 0.0]",,-4.66024827957,0.0203402861953,-8.8839225769,"[-1.0, 0.0, 0.0, 0.0, 0.0, 0.0, 0.0, 0.0, 0.0]"
1606295382270604078,,88238,,1606295382,378512299,"""spatial""",,-0.731480435389,-0.639399254631,0.174352612061,-0.160331529087,"[-1.0, 0.0, 0.0, 0.0, 0.0, 0.0, 0.0, 0.0, 0.0]",,0.018827073276,-0.155540078878,-0.00469429278746,"[-1.0, 0.0, 0.0, 0.0, 0.0, 0.0, 0.0, 0.0, 0.0]",,-4.71638345718,-0.050410695374,-8.76972198486,"[-1.0, 0.0, 0.0, 0.0, 0.0, 0.0, 0.0, 0.0, 0.0]"
1606295382319559277,,88239,,1606295382,427341247,"""spatial""",,-0.730701819778,-0.639321446281,0.176360801391,-0.161987354959,"[-1.0, 0.0, 0.0, 0.0, 0.0, 0.0, 0.0, 0.0, 0.0]",,-0.00830834358931,-0.0833671316504,-0.0224037505686,"[-1.0, 0.0, 0.0, 0.0, 0.0, 0.0, 0.0, 0.0, 0.0]",,-4.80476570129,0.00569722335786,-8.2117061615,"[-1.0, 0.0, 0.0, 0.0, 0.0, 0.0, 0.0, 0.0, 0.0]"
1606295382380026108,,88240,,1606295382,488292769,"""spatial""",,-0.730520814869,-0.639028973494,0.177105586912,-0.163141116376,"[-1.0, 0.0, 0.0, 0.0, 0.0, 0.0, 0.0, 0.0, 0.0]",,-0.0157619211823,-0.0492894798517,0.0198479704559,"[-1.0, 0.0, 0.0, 0.0, 0.0, 0.0, 0.0, 0.0, 0.0]",,-4.49521541595,0.0742375031114,-8.16245174408,"[-1.0, 0.0, 0.0, 0.0, 0.0, 0.0, 0.0, 0.0, 0.0]"
1606295382417466978,,88241,,1606295382,524860255,"""spatial""",,-0.731607639846,-0.63757218348,0.177392387655,-0.163658414282,"[-1.0, 0.0, 0.0, 0.0, 0.0, 0.0, 0.0, 0.0, 0.0]",,0.0153869474307,-0.00477979658172,0.0733971819282,"[-1.0, 0.0, 0.0, 0.0, 0.0, 0.0, 0.0, 0.0, 0.0]",,-4.04553794861,0.386317402124,-7.20860004425,"[-1.0, 0.0, 0.0, 0.0, 0.0, 0.0, 0.0, 0.0, 0.0]"
1606295382470678674,,88242,,1606295382,578727053,"""spatial""",,-0.733109353132,-0.636322508348,0.177556937513,-0.161610279618,"[-1.0, 0.0, 0.0, 0.0, 0.0, 0.0, 0.0, 0.0, 0.0]",,0.0962380617857,0.0624628067017,0.0612415410578,"[-1.0, 0.0, 0.0, 0.0, 0.0, 0.0, 0.0, 0.0, 0.0]",,-3.61956644058,-0.0693565830588,-6.87644481659,"[-1.0, 0.0, 0.0, 0.0, 0.0, 0.0, 0.0, 0.0, 0.0]"
1606295382519745535,,88243,,1606295382,627883127,"""spatial""",,-0.734656959068,-0.634316681876,0.179352661287,-0.160481466501,"[-1.0, 0.0, 0.0, 0.0, 0.0, 0.0, 0.0, 0.0, 0.0]",,0.0995973572135,-0.0726758986712,0.0640105605125,"[-1.0, 0.0, 0.0, 0.0, 0.0, 0.0, 0.0, 0.0, 0.0]",,-4.29689073563,0.161424517632,-9.38808917999,"[-1.0, 0.0, 0.0, 0.0, 0.0, 0.0, 0.0, 0.0, 0.0]"
1606295382574930399,,88244,,1606295382,683829099,"""spatial""",,-0.734368669356,-0.633363915487,0.18355170373,-0.160815233321,"[-1.0, 0.0, 0.0, 0.0, 0.0, 0.0, 0.0, 0.0, 0.0]",,0.0767485648394,-0.121406883001,-0.0047716088593,"[-1.0, 0.0, 0.0, 0.0, 0.0, 0.0, 0.0, 0.0, 0.0]",,-6.27772712708,-0.290037333965,-10.5359249115,"[-1.0, 0.0, 0.0, 0.0, 0.0, 0.0, 0.0, 0.0, 0.0]"
1606295382629981089,,88245,,1606295382,738347185,"""spatial""",,-0.733802447519,-0.633153202318,0.185039388701,-0.162516126028,"[-1.0, 0.0, 0.0, 0.0, 0.0, 0.0, 0.0, 0.0, 0.0]",,-0.0213353745639,-0.0785165354609,-0.0156671758741,"[-1.0, 0.0, 0.0, 0.0, 0.0, 0.0, 0.0, 0.0, 0.0]",,-6.42328357697,0.333053708076,-10.9666194916,"[-1.0, 0.0, 0.0, 0.0, 0.0, 0.0, 0.0, 0.0, 0.0]"
1606295382671272416,,88246,,1606295382,774805371,"""spatial""",,-0.734330004891,-0.632889147043,0.184438969965,-0.161842635193,"[-1.0, 0.0, 0.0, 0.0, 0.0, 0.0, 0.0, 0.0, 0.0]",,0.017237637192,0.0563181266189,0.0364113412797,"[-1.0, 0.0, 0.0, 0.0, 0.0, 0.0, 0.0, 0.0, 0.0]",,-5.12180042267,0.159601256251,-9.40895748138,"[-1.0, 0.0, 0.0, 0.0, 0.0, 0.0, 0.0, 0.0, 0.0]"
1606295382718313873,,88247,,1606295382,826604044,"""spatial""",,-0.735477832163,-0.632033903193,0.18408768652,-0.160365967672,"[-1.0, 0.0, 0.0, 0.0, 0.0, 0.0, 0.0, 0.0, 0.0]",,0.0510124824941,0.0571415647864,0.0355907008052,"[-1.0, 0.0, 0.0, 0.0, 0.0, 0.0, 0.0, 0.0, 0.0]",,-3.9566757679,0.258401155472,-7.20627403259,"[-1.0, 0.0, 0.0, 0.0, 0.0, 0.0, 0.0, 0.0, 0.0]"
1606295383034959652,,88248,,1606295382,883078154,"""spatial""",,-0.735752682299,-0.632062088898,0.184882067686,-0.158063761927,"[-1.0, 0.0, 0.0, 0.0, 0.0, 0.0, 0.0, 0.0, 0.0]",,0.0942800790071,0.0169392488897,-0.0282273478806,"[-1.0, 0.0, 0.0, 0.0, 0.0, 0.0, 0.0, 0.0, 0.0]",,-3.0838727951,-0.310101002455,-6.05337762833,"[-1.0, 0.0, 0.0, 0.0, 0.0, 0.0, 0.0, 0.0, 0.0]"
1606295383086121434,,88249,,1606295382,933741215,"""spatial""",,-0.735416260886,-0.631650740925,0.187993644388,-0.157603011262,"[-1.0, 0.0, 0.0, 0.0, 0.0, 0.0, 0.0, 0.0, 0.0]",,0.0789384022355,-0.114020235837,-0.0185380801558,"[-1.0, 0.0, 0.0, 0.0, 0.0, 0.0, 0.0, 0.0, 0.0]",,-4.12822151184,-0.589715301991,-8.51597881317,"[-1.0, 0.0, 0.0, 0.0, 0.0, 0.0, 0.0, 0.0, 0.0]"
1606295383086132648,,88250,,1606295382,978055688,"""spatial""",,-0.733653600656,-0.632202437904,0.191403548338,-0.159490460408,"[-1.0, 0.0, 0.0, 0.0, 0.0, 0.0, 0.0, 0.0, 0.0]",,-0.00480772089213,-0.0811713710427,-0.0645624995232,"[-1.0, 0.0, 0.0, 0.0, 0.0, 0.0, 0.0, 0.0, 0.0]",,-6.67471790314,-0.731058180332,-9.10958576202,"[-1.0, 0.0, 0.0, 0.0, 0.0, 0.0, 0.0, 0.0, 0.0]"
1606295383086138735,,88251,,1606295383,26802124,"""spatial""",,-0.736456771745,-0.631143303406,0.186124936102,-0.156993653443,"[-1.0, 0.0, 0.0, 0.0, 0.0, 0.0, 0.0, 0.0, 0.0]",,-0.035876210779,0.23817384243,0.154826179147,"[-1.0, 0.0, 0.0, 0.0, 0.0, 0.0, 0.0, 0.0, 0.0]",,-5.93593740463,-0.518733918667,-11.256726265,"[-1.0, 0.0, 0.0, 0.0, 0.0, 0.0, 0.0, 0.0, 0.0]"
1606295383086143739,,88252,,1606295383,83208897,"""spatial""",,-0.739546994483,-0.629812037244,0.180512640681,-0.154344281472,"[-1.0, 0.0, 0.0, 0.0, 0.0, 0.0, 0.0, 0.0, 0.0]",,-0.0379600636661,0.275190770626,0.110028378665,"[-1.0, 0.0, 0.0, 0.0, 0.0, 0.0, 0.0, 0.0, 0.0]",,-4.00510597229,0.680428862572,-8.3331861496,"[-1.0, 0.0, 0.0, 0.0, 0.0, 0.0, 0.0, 0.0, 0.0]"
1606295383113696253,,88253,,1606295383,133980945,"""spatial""",,-0.742874825348,-0.628484832984,0.174777690028,-0.150321541272,"[-1.0, 0.0, 0.0, 0.0, 0.0, 0.0, 0.0, 0.0, 0.0]",,0.0319631807506,0.252973973751,0.140190556645,"[-1.0, 0.0, 0.0, 0.0, 0.0, 0.0, 0.0, 0.0, 0.0]",,-2.85239171982,0.155538871884,-7.4792714119,"[-1.0, 0.0, 0.0, 0.0, 0.0, 0.0, 0.0, 0.0, 0.0]"
1606295383113717277,,88254,,1606295383,193485767,"""spatial""",,-0.745661195649,-0.625059516459,0.177599553245,-0.14747367345,"[-1.0, 0.0, 0.0, 0.0, 0.0, 0.0, 0.0, 0.0, 0.0]",,0.215855136514,-0.0756932422519,0.122301906347,"[-1.0, 0.0, 0.0, 0.0, 0.0, 0.0, 0.0, 0.0, 0.0]",,-3.90145039558,-0.340913653374,-9.95785903931,"[-1.0, 0.0, 0.0, 0.0, 0.0, 0.0, 0.0, 0.0, 0.0]"
1606295383189061233,,88255,,1606295383,225920704,"""spatial""",,-0.746097489288,-0.62229005758,0.184582748671,-0.148401357196,"[-1.0, 0.0, 0.0, 0.0, 0.0, 0.0, 0.0, 0.0, 0.0]",,0.137306377292,-0.217626079917,0.0240363366902,"[-1.0, 0.0, 0.0, 0.0, 0.0, 0.0, 0.0, 0.0, 0.0]",,-5.78171491623,-0.0600011497736,-9.34449958801,"[-1.0, 0.0, 0.0, 0.0, 0.0, 0.0, 0.0, 0.0, 0.0]"
1606295383212507751,,88256,,1606295383,278264602,"""spatial""",,-0.746680870161,-0.623566448545,0.181193025159,-0.144228144843,"[-1.0, 0.0, 0.0, 0.0, 0.0, 0.0, 0.0, 0.0, 0.0]",,0.00515918200836,0.319710075855,-0.0149648478255,"[-1.0, 0.0, 0.0, 0.0, 0.0, 0.0, 0.0, 0.0, 0.0]",,-4.6671257019,-0.584493935108,-8.14628601074,"[-1.0, 0.0, 0.0, 0.0, 0.0, 0.0, 0.0, 0.0, 0.0]"
1606295383254317093,,88257,,1606295383,332971762,"""spatial""",,-0.748026187028,-0.624237015442,0.175555872317,-0.1412976231,"[-1.0, 0.0, 0.0, 0.0, 0.0, 0.0, 0.0, 0.0, 0.0]",,-0.0502611398697,0.168563440442,0.0113776624203,"[-1.0, 0.0, 0.0, 0.0, 0.0, 0.0, 0.0, 0.0, 0.0]",,-2.9380710125,-0.00230990257114,-9.74538040161,"[-1.0, 0.0, 0.0, 0.0, 0.0, 0.0, 0.0, 0.0, 0.0]"
1606295383294897721,,88258,,1606295383,388611685,"""spatial""",,-0.746690927452,-0.624920600446,0.177352896716,-0.14308386054,"[-1.0, 0.0, 0.0, 0.0, 0.0, 0.0, 0.0, 0.0, 0.0]",,-0.0219798404723,-0.132793501019,-0.0664784163237,"[-1.0, 0.0, 0.0, 0.0, 0.0, 0.0, 0.0, 0.0, 0.0]",,-4.19909334183,-0.217232406139,-9.33733081818,"[-1.0, 0.0, 0.0, 0.0, 0.0, 0.0, 0.0, 0.0, 0.0]"
1606295383317827991,,88259,,1606295383,425200921,"""spatial""",,-0.743995942055,-0.626765483909,0.180127559414,-0.145565099513,"[-1.0, 0.0, 0.0, 0.0, 0.0, 0.0, 0.0, 0.0, 0.0]",,-0.0453558303416,-0.144419103861,-0.129390567541,"[-1.0, 0.0, 0.0, 0.0, 0.0, 0.0, 0.0, 0.0, 0.0]",,-4.4998383522,0.0377834402025,-8.93341636658,"[-1.0, 0.0, 0.0, 0.0, 0.0, 0.0, 0.0, 0.0, 0.0]"
1606295383432497787,,88260,,1606295383,478531344,"""spatial""",,-0.740664660417,-0.629868076747,0.180780337706,-0.148326131656,"[-1.0, 0.0, 0.0, 0.0, 0.0, 0.0, 0.0, 0.0, 0.0]",,-0.129474386573,-0.0786598846316,-0.15612526238,"[-1.0, 0.0, 0.0, 0.0, 0.0, 0.0, 0.0, 0.0, 0.0]",,-4.48230886459,-0.300141692162,-8.75291728973,"[-1.0, 0.0, 0.0, 0.0, 0.0, 0.0, 0.0, 0.0, 0.0]"
1606295383455163185,,88261,,1606295383,533189879,"""spatial""",,-0.737977740872,-0.632234174481,0.180031047082,-0.15250470061,"[-1.0, 0.0, 0.0, 0.0, 0.0, 0.0, 0.0, 0.0, 0.0]",,-0.177225112915,-0.0892638191581,-0.100984841585,"[-1.0, 0.0, 0.0, 0.0, 0.0, 0.0, 0.0, 0.0, 0.0]",,-4.43083286285,-0.00113611260895,-8.78478717804,"[-1.0, 0.0, 0.0, 0.0, 0.0, 0.0, 0.0, 0.0, 0.0]"
1606295383496315370,,88262,,1606295383,588927852,"""spatial""",,-0.73544351936,-0.634645748664,0.179178324141,-0.15570116765,"[-1.0, 0.0, 0.0, 0.0, 0.0, 0.0, 0.0, 0.0, 0.0]",,-0.147409409285,-0.0427488274872,-0.108113899827,"[-1.0, 0.0, 0.0, 0.0, 0.0, 0.0, 0.0, 0.0, 0.0]",,-4.61746788025,0.00565049890429,-8.52311325073,"[-1.0, 0.0, 0.0, 0.0, 0.0, 0.0, 0.0, 0.0, 0.0]"
1606295383520460082,,88263,,1606295383,625460376,"""spatial""",,-0.732960443048,-0.637251219424,0.177910498205,-0.158201620317,"[-1.0, 0.0, 0.0, 0.0, 0.0, 0.0, 0.0, 0.0, 0.0]",,-0.146070882678,-0.0224936585873,-0.120091602206,"[-1.0, 0.0, 0.0, 0.0, 0.0, 0.0, 0.0, 0.0, 0.0]",,-4.64600324631,0.154601663351,-8.66755104065,"[-1.0, 0.0, 0.0, 0.0, 0.0, 0.0, 0.0, 0.0, 0.0]"
1606295383587430928,,88264,,1606295383,693924748,"""spatial""",,-0.729751893033,-0.640907284676,0.175733580552,-0.160679150367,"[-1.0, 0.0, 0.0, 0.0, 0.0, 0.0, 0.0, 0.0, 0.0]",,-0.184330403805,0.0142542934045,-0.171476662159,"[-1.0, 0.0, 0.0, 0.0, 0.0, 0.0, 0.0, 0.0, 0.0]",,-4.74586391449,0.4555991292,-8.74671649933,"[-1.0, 0.0, 0.0, 0.0, 0.0, 0.0, 0.0, 0.0, 0.0]"
1606295383632245036,,88265,,1606295383,728600885,"""spatial""",,-0.725292440359,-0.646195091511,0.172736770707,-0.162925914897,"[-1.0, 0.0, 0.0, 0.0, 0.0, 0.0, 0.0, 0.0, 0.0]",,-0.222143918276,0.0408228076994,-0.259128719568,"[-1.0, 0.0, 0.0, 0.0, 0.0, 0.0, 0.0, 0.0, 0.0]",,-4.70535516739,0.553550302982,-8.69976139069,"[-1.0, 0.0, 0.0, 0.0, 0.0, 0.0, 0.0, 0.0, 0.0]"
1606295383679148173,,88266,,1606295383,784335007,"""spatial""",,-0.719380960266,-0.653235264207,0.169087257149,-0.164876193963,"[-1.0, 0.0, 0.0, 0.0, 0.0, 0.0, 0.0, 0.0, 0.0]",,-0.236854955554,0.064946077764,-0.332888036966,"[-1.0, 0.0, 0.0, 0.0, 0.0, 0.0, 0.0, 0.0, 0.0]",,-4.616751194,0.377036750317,-8.66505622864,"[-1.0, 0.0, 0.0, 0.0, 0.0, 0.0, 0.0, 0.0, 0.0]"
1606295383724825459,,88267,,1606295383,833524568,"""spatial""",,-0.712444597891,-0.661042633353,0.165658816735,-0.16733961906,"[-1.0, 0.0, 0.0, 0.0, 0.0, 0.0, 0.0, 0.0, 0.0]",,-0.272408276796,0.0385440737009,-0.375158697367,"[-1.0, 0.0, 0.0, 0.0, 0.0, 0.0, 0.0, 0.0, 0.0]",,-4.51059770584,0.267851740122,-8.67755222321,"[-1.0, 0.0, 0.0, 0.0, 0.0, 0.0, 0.0, 0.0, 0.0]"
1606295383787615985,,88268,,1606295383,892995391,"""spatial""",,-0.705140169722,-0.669364064977,0.160703139826,-0.170010852486,"[-1.0, 0.0, 0.0, 0.0, 0.0, 0.0, 0.0, 0.0, 0.0]",,-0.320280492306,0.0991528406739,-0.37616944313,"[-1.0, 0.0, 0.0, 0.0, 0.0, 0.0, 0.0, 0.0, 0.0]",,-4.53368234634,0.202799543738,-8.43456077576,"[-1.0, 0.0, 0.0, 0.0, 0.0, 0.0, 0.0, 0.0, 0.0]"
1606295383817490148,,88269,,1606295383,925529440,"""spatial""",,-0.697608680676,-0.678390165565,0.154177032241,-0.171343288223,"[-1.0, 0.0, 0.0, 0.0, 0.0, 0.0, 0.0, 0.0, 0.0]",,-0.322543025017,0.163957998157,-0.424574553967,"[-1.0, 0.0, 0.0, 0.0, 0.0, 0.0, 0.0, 0.0, 0.0]",,-4.24962902069,0.658954143524,-9.02267551422,"[-1.0, 0.0, 0.0, 0.0, 0.0, 0.0, 0.0, 0.0, 0.0]"
1606295383879946792,,88270,,1606295383,987983400,"""spatial""",,-0.687604851651,-0.689393970718,0.148475093107,-0.172889316286,"[-1.0, 0.0, 0.0, 0.0, 0.0, 0.0, 0.0, 0.0, 0.0]",,-0.342171549797,0.120879694819,-0.555159330368,"[-1.0, 0.0, 0.0, 0.0, 0.0, 0.0, 0.0, 0.0, 0.0]",,-4.09487962723,0.698589086533,-9.09089946747,"[-1.0, 0.0, 0.0, 0.0, 0.0, 0.0, 0.0, 0.0, 0.0]"
1606295383924894334,,88271,,1606295384,33724810,"""spatial""",,-0.674565582724,-0.702437791504,0.143698241737,-0.175764712585,"[-1.0, 0.0, 0.0, 0.0, 0.0, 0.0, 0.0, 0.0, 0.0]",,-0.384093433619,0.0484225079417,-0.697428524494,"[-1.0, 0.0, 0.0, 0.0, 0.0, 0.0, 0.0, 0.0, 0.0]",,-4.08213233948,0.686594188213,-9.17150783539,"[-1.0, 0.0, 0.0, 0.0, 0.0, 0.0, 0.0, 0.0, 0.0]"
1606295383985814532,,88272,,1606295384,93362808,"""spatial""",,-0.658727290962,-0.716923338016,0.140851503977,-0.179611447546,"[-1.0, 0.0, 0.0, 0.0, 0.0, 0.0, 0.0, 0.0, 0.0]",,-0.374700367451,-0.035407435149,-0.81493216753,"[-1.0, 0.0, 0.0, 0.0, 0.0, 0.0, 0.0, 0.0, 0.0]",,-4.40854501724,0.759356737137,-9.10957622528,"[-1.0, 0.0, 0.0, 0.0, 0.0, 0.0, 0.0, 0.0, 0.0]"
1606295384018416147,,88273,,1606295384,126092019,"""spatial""",,-0.640586157301,-0.732348275879,0.139452268119,-0.184033750407,"[-1.0, 0.0, 0.0, 0.0, 0.0, 0.0, 0.0, 0.0, 0.0]",,-0.375179290771,-0.0822431743145,-0.912411630154,"[-1.0, 0.0, 0.0, 0.0, 0.0, 0.0, 0.0, 0.0, 0.0]",,-4.39228248596,0.756571650505,-8.74618816376,"[-1.0, 0.0, 0.0, 0.0, 0.0, 0.0, 0.0, 0.0, 0.0]"
1606295384147635138,,88274,,1606295384,183703980,"""spatial""",,-0.620830359434,-0.748241146492,0.138780191838,-0.188268204765,"[-1.0, 0.0, 0.0, 0.0, 0.0, 0.0, 0.0, 0.0, 0.0]",,-0.362167775631,-0.0924084708095,-0.982476353645,"[-1.0, 0.0, 0.0, 0.0, 0.0, 0.0, 0.0, 0.0, 0.0]",,-4.27749681473,0.416586577892,-8.65169525146,"[-1.0, 0.0, 0.0, 0.0, 0.0, 0.0, 0.0, 0.0, 0.0]"
1606295384173546332,,88275,,1606295384,228829553,"""spatial""",,-0.600861161536,-0.763771522599,0.137747957566,-0.191427527261,"[-1.0, 0.0, 0.0, 0.0, 0.0, 0.0, 0.0, 0.0, 0.0]",,-0.344395518303,-0.0573942288756,-0.945715665817,"[-1.0, 0.0, 0.0, 0.0, 0.0, 0.0, 0.0, 0.0, 0.0]",,-4.31773328781,0.0169162061065,-8.90977573395,"[-1.0, 0.0, 0.0, 0.0, 0.0, 0.0, 0.0, 0.0, 0.0]"
1606295384191676845,,88276,,1606295384,288278638,"""spatial""",,-0.581919061263,-0.777807645412,0.136534447065,-0.194277810624,"[-1.0, 0.0, 0.0, 0.0, 0.0, 0.0, 0.0, 0.0, 0.0]",,-0.330888658762,-0.053718123585,-0.871310830116,"[-1.0, 0.0, 0.0, 0.0, 0.0, 0.0, 0.0, 0.0, 0.0]",,-4.35545492172,-0.217941954732,-8.97114372253,"[-1.0, 0.0, 0.0, 0.0, 0.0, 0.0, 0.0, 0.0, 0.0]"
1606295384216044199,,88277,,1606295384,324853574,"""spatial""",,-0.564916780229,-0.789836766908,0.134905489809,-0.197046671545,"[-1.0, 0.0, 0.0, 0.0, 0.0, 0.0, 0.0, 0.0, 0.0]",,-0.30845284462,-0.042470831424,-0.759789824486,"[-1.0, 0.0, 0.0, 0.0, 0.0, 0.0, 0.0, 0.0, 0.0]",,-4.44566774368,-0.258704274893,-8.79671573639,"[-1.0, 0.0, 0.0, 0.0, 0.0, 0.0, 0.0, 0.0, 0.0]"
1606295384272261228,,88278,,1606295384,378840472,"""spatial""",,-0.549979473501,-0.799845083996,0.133565891742,-0.199826300985,"[-1.0, 0.0, 0.0, 0.0, 0.0, 0.0, 0.0, 0.0, 0.0]",,-0.271159619093,-0.0619646608829,-0.643794417381,"[-1.0, 0.0, 0.0, 0.0, 0.0, 0.0, 0.0, 0.0, 0.0]",,-4.48185110092,-0.489493399858,-8.78675079346,"[-1.0, 0.0, 0.0, 0.0, 0.0, 0.0, 0.0, 0.0, 0.0]"
1606295384319909915,,88279,,1606295384,427981608,"""spatial""",,-0.538903903379,-0.80681614113,0.132372095429,-0.202750899779,"[-1.0, 0.0, 0.0, 0.0, 0.0, 0.0, 0.0, 0.0, 0.0]",,-0.213711723685,-0.0704104602337,-0.439448058605,"[-1.0, 0.0, 0.0, 0.0, 0.0, 0.0, 0.0, 0.0, 0.0]",,-4.62350273132,-0.589496552944,-8.82873916626,"[-1.0, 0.0, 0.0, 0.0, 0.0, 0.0, 0.0, 0.0, 0.0]"
1606295384380005251,,88280,,1606295384,488964668,"""spatial""",,-0.533533815359,-0.80988180806,0.131945967083,-0.204996317915,"[-1.0, 0.0, 0.0, 0.0, 0.0, 0.0, 0.0, 0.0, 0.0]",,-0.103241309524,-0.0556946620345,-0.15671557188,"[-1.0, 0.0, 0.0, 0.0, 0.0, 0.0, 0.0, 0.0, 0.0]",,-4.69524383545,-0.823000192642,-8.72952747345,"[-1.0, 0.0, 0.0, 0.0, 0.0, 0.0, 0.0, 0.0, 0.0]"
1606295384416885812,,88281,,1606295384,525330529,"""spatial""",,-0.535931444204,-0.807897639799,0.132042767857,-0.206503310093,"[-1.0, 0.0, 0.0, 0.0, 0.0, 0.0, 0.0, 0.0, 0.0]",,0.0253474190831,-0.0522547513247,0.201247990131,"[-1.0, 0.0, 0.0, 0.0, 0.0, 0.0, 0.0, 0.0, 0.0]",,-4.60144329071,-0.909223556519,-8.69551467896,"[-1.0, 0.0, 0.0, 0.0, 0.0, 0.0, 0.0, 0.0, 0.0]"
1606295384470408024,,88282,,1606295384,579104002,"""spatial""",,-0.546724556684,-0.800241517253,0.132998413403,-0.207405687291,"[-1.0, 0.0, 0.0, 0.0, 0.0, 0.0, 0.0, 0.0, 0.0]",,0.162314966321,-0.0568034946918,0.579922139645,"[-1.0, 0.0, 0.0, 0.0, 0.0, 0.0, 0.0, 0.0, 0.0]",,-4.59943008423,-0.735004425049,-8.77508926392,"[-1.0, 0.0, 0.0, 0.0, 0.0, 0.0, 0.0, 0.0, 0.0]"
1606295384519850409,,88283,,1606295384,628208363,"""spatial""",,-0.56442402035,-0.787344939857,0.135159753844,-0.207955168926,"[-1.0, 0.0, 0.0, 0.0, 0.0, 0.0, 0.0, 0.0, 0.0]",,0.302235126495,-0.0794169306755,0.909200251102,"[-1.0, 0.0, 0.0, 0.0, 0.0, 0.0, 0.0, 0.0, 0.0]",,-4.61433649063,-0.41820064187,-8.73891448975,"[-1.0, 0.0, 0.0, 0.0, 0.0, 0.0, 0.0, 0.0, 0.0]"
1606295384575627511,,88284,,1606295384,684037048,"""spatial""",,-0.588301853758,-0.769217200991,0.138534125366,-0.20739846174,"[-1.0, 0.0, 0.0, 0.0, 0.0, 0.0, 0.0, 0.0, 0.0]",,0.439793407917,-0.0779534354806,1.17591178417,"[-1.0, 0.0, 0.0, 0.0, 0.0, 0.0, 0.0, 0.0, 0.0]",,-4.58376026154,-0.186619415879,-8.62595176697,"[-1.0, 0.0, 0.0, 0.0, 0.0, 0.0, 0.0, 0.0, 0.0]"
1606295384630845124,,88285,,1606295384,738624583,"""spatial""",,-0.616501519843,-0.74642657715,0.142909126292,-0.205791918706,"[-1.0, 0.0, 0.0, 0.0, 0.0, 0.0, 0.0, 0.0, 0.0]",,0.55359262228,-0.0852314010262,1.38820123672,"[-1.0, 0.0, 0.0, 0.0, 0.0, 0.0, 0.0, 0.0, 0.0]",,-4.55639266968,0.368297547102,-8.75201511383,"[-1.0, 0.0, 0.0, 0.0, 0.0, 0.0, 0.0, 0.0, 0.0]"
1606295384669339538,,88286,,1606295384,778104644,"""spatial""",,-0.646831756536,-0.720025185382,0.148929076569,-0.202466479675,"[-1.0, 0.0, 0.0, 0.0, 0.0, 0.0, 0.0, 0.0, 0.0]",,0.688874483109,-0.0960019007325,1.50342714787,"[-1.0, 0.0, 0.0, 0.0, 0.0, 0.0, 0.0, 0.0, 0.0]",,-4.51762199402,0.605865716934,-8.78677940369,"[-1.0, 0.0, 0.0, 0.0, 0.0, 0.0, 0.0, 0.0, 0.0]"
1606295384718261658,,88287,,1606295384,826928080,"""spatial""",,-0.678522222837,-0.690045628249,0.157089180592,-0.196894950793,"[-1.0, 0.0, 0.0, 0.0, 0.0, 0.0, 0.0, 0.0, 0.0]",,0.839570403099,-0.101383991539,1.60653531551,"[-1.0, 0.0, 0.0, 0.0, 0.0, 0.0, 0.0, 0.0, 0.0]",,-4.57974338531,0.549362123013,-8.66218948364,"[-1.0, 0.0, 0.0, 0.0, 0.0, 0.0, 0.0, 0.0, 0.0]"
1606295384800544571,,88288,,1606295384,883635703,"""spatial""",,-0.711257086727,-0.656309523826,0.165926401396,-0.189313621781,"[-1.0, 0.0, 0.0, 0.0, 0.0, 0.0, 0.0, 0.0, 0.0]",,0.928407430649,-0.0847856774926,1.71112442017,"[-1.0, 0.0, 0.0, 0.0, 0.0, 0.0, 0.0, 0.0, 0.0]",,-4.46390199661,0.506342291832,-8.69761276245,"[-1.0, 0.0, 0.0, 0.0, 0.0, 0.0, 0.0, 0.0, 0.0]"
1606295384860263305,,88289,,1606295384,934107064,"""spatial""",,-0.743453127524,-0.620047998021,0.174101287769,-0.1802963042,"[-1.0, 0.0, 0.0, 0.0, 0.0, 0.0, 0.0, 0.0, 0.0]",,0.953043043613,-0.0489523038268,1.76202428341,"[-1.0, 0.0, 0.0, 0.0, 0.0, 0.0, 0.0, 0.0, 0.0]",,-4.28496932983,0.384852707386,-8.74432086945,"[-1.0, 0.0, 0.0, 0.0, 0.0, 0.0, 0.0, 0.0, 0.0]"
1606295384870786117,,88290,,1606295384,978762799,"""spatial""",,-0.774257100063,-0.58155155128,0.181884597979,-0.171002619527,"[-1.0, 0.0, 0.0, 0.0, 0.0, 0.0, 0.0, 0.0, 0.0]",,0.942237854004,-0.0698344781995,1.78422534466,"[-1.0, 0.0, 0.0, 0.0, 0.0, 0.0, 0.0, 0.0, 0.0]",,-4.16729354858,0.551307916641,-9.01508808136,"[-1.0, 0.0, 0.0, 0.0, 0.0, 0.0, 0.0, 0.0, 0.0]"
1606295384918609960,,88291,,1606295385,27340972,"""spatial""",,-0.802162907783,-0.542497817835,0.188719992639,-0.163142845714,"[-1.0, 0.0, 0.0, 0.0, 0.0, 0.0, 0.0, 0.0, 0.0]",,0.853334367275,-0.09895811975,1.73372972012,"[-1.0, 0.0, 0.0, 0.0, 0.0, 0.0, 0.0, 0.0, 0.0]",,-4.29786109924,0.696681678295,-9.17002391815,"[-1.0, 0.0, 0.0, 0.0, 0.0, 0.0, 0.0, 0.0, 0.0]"
1606295384975913294,,88292,,1606295385,83491108,"""spatial""",,-0.825329186485,-0.50573353281,0.195946118548,-0.157068213852,"[-1.0, 0.0, 0.0, 0.0, 0.0, 0.0, 0.0, 0.0, 0.0]",,0.778593122959,-0.187203764915,1.57950854301,"[-1.0, 0.0, 0.0, 0.0, 0.0, 0.0, 0.0, 0.0, 0.0]",,-4.34871053696,1.22766327858,-9.16121768951,"[-1.0, 0.0, 0.0, 0.0, 0.0, 0.0, 0.0, 0.0, 0.0]"
1606295385025385569,,88293,,1606295385,134159343,"""spatial""",,-0.844572478674,-0.471028416364,0.204323332843,-0.15192619165,"[-1.0, 0.0, 0.0, 0.0, 0.0, 0.0, 0.0, 0.0, 0.0]",,0.7155610919,-0.238598704338,1.40878999233,"[-1.0, 0.0, 0.0, 0.0, 0.0, 0.0, 0.0, 0.0, 0.0]",,-4.56402349472,1.18077230453,-8.61287498474,"[-1.0, 0.0, 0.0, 0.0, 0.0, 0.0, 0.0, 0.0, 0.0]"
1606295385084972085,,88294,,1606295385,193745804,"""spatial""",,-0.860620923843,-0.438614434212,0.212923060107,-0.147012459169,"[-1.0, 0.0, 0.0, 0.0, 0.0, 0.0, 0.0, 0.0, 0.0]",,0.682014644146,-0.254138380289,1.27958035469,"[-1.0, 0.0, 0.0, 0.0, 0.0, 0.0, 0.0, 0.0, 0.0]",,-4.77166938782,1.0726647377,-8.33461284637,"[-1.0, 0.0, 0.0, 0.0, 0.0, 0.0, 0.0, 0.0, 0.0]"
1606295385118610933,,88295,,1606295385,226363677,"""spatial""",,-0.874341324613,-0.408688233015,0.220003830755,-0.14177257857,"[-1.0, 0.0, 0.0, 0.0, 0.0, 0.0, 0.0, 0.0, 0.0]",,0.617764294147,-0.197905153036,1.14949452877,"[-1.0, 0.0, 0.0, 0.0, 0.0, 0.0, 0.0, 0.0, 0.0]",,-4.94613170624,0.996546626091,-8.48774814606,"[-1.0, 0.0, 0.0, 0.0, 0.0, 0.0, 0.0, 0.0, 0.0]"
1606295385170435777,,88296,,1606295385,278724088,"""spatial""",,-0.8849628362,-0.383108046248,0.226137319373,-0.137590025423,"[-1.0, 0.0, 0.0, 0.0, 0.0, 0.0, 0.0, 0.0, 0.0]",,0.502400577068,-0.177823081613,0.960635066032,"[-1.0, 0.0, 0.0, 0.0, 0.0, 0.0, 0.0, 0.0, 0.0]",,-5.14320755005,1.08017885685,-8.42721843719,"[-1.0, 0.0, 0.0, 0.0, 0.0, 0.0, 0.0, 0.0, 0.0]"
1606295385224798074,,88297,,1606295385,333494673,"""spatial""",,-0.892986394971,-0.362875978456,0.229929698071,-0.134271040128,"[-1.0, 0.0, 0.0, 0.0, 0.0, 0.0, 0.0, 0.0, 0.0]",,0.371392518282,-0.108603589237,0.734909594059,"[-1.0, 0.0, 0.0, 0.0, 0.0, 0.0, 0.0, 0.0, 0.0]",,-5.18543767929,1.29247605801,-8.24711227417,"[-1.0, 0.0, 0.0, 0.0, 0.0, 0.0, 0.0, 0.0, 0.0]"
1606295385280885393,,88298,,1606295385,388798496,"""spatial""",,-0.898131703311,-0.349611079751,0.231738482758,-0.132018027657,"[-1.0, 0.0, 0.0, 0.0, 0.0, 0.0, 0.0, 0.0, 0.0]",,0.21955293417,-0.0361482352018,0.452944874763,"[-1.0, 0.0, 0.0, 0.0, 0.0, 0.0, 0.0, 0.0, 0.0]",,-5.21436452866,1.49901020527,-8.22489356995,"[-1.0, 0.0, 0.0, 0.0, 0.0, 0.0, 0.0, 0.0, 0.0]"
1606295385331231046,,88299,,1606295385,425545370,"""spatial""",,-0.900161495535,-0.344456857353,0.231968983873,-0.131336344529,"[-1.0, 0.0, 0.0, 0.0, 0.0, 0.0, 0.0, 0.0, 0.0]",,0.0554645545781,0.0114602670074,0.140911251307,"[-1.0, 0.0, 0.0, 0.0, 0.0, 0.0, 0.0, 0.0, 0.0]",,-5.20152664185,1.664514184,-8.34222507477,"[-1.0, 0.0, 0.0, 0.0, 0.0, 0.0, 0.0, 0.0, 0.0]"
1606295385371167922,,88300,,1606295385,478954168,"""spatial""",,-0.899110479574,-0.348198275242,0.230438679218,-0.131363397538,"[-1.0, 0.0, 0.0, 0.0, 0.0, 0.0, 0.0, 0.0, 0.0]",,-0.0945081412792,0.0899918302894,-0.201673895121,"[-1.0, 0.0, 0.0, 0.0, 0.0, 0.0, 0.0, 0.0, 0.0]",,-5.18452262878,1.55968296528,-8.33983707428,"[-1.0, 0.0, 0.0, 0.0, 0.0, 0.0, 0.0, 0.0, 0.0]"
1606295385426640765,,88301,,1606295385,533528416,"""spatial""",,-0.895189747918,-0.359966412916,0.226794336058,-0.132754780911,"[-1.0, 0.0, 0.0, 0.0, 0.0, 0.0, 0.0, 0.0, 0.0]",,-0.262341320515,0.14551885426,-0.499479264021,"[-1.0, 0.0, 0.0, 0.0, 0.0, 0.0, 0.0, 0.0, 0.0]",,-4.88779020309,1.55762779713,-8.43926143646,"[-1.0, 0.0, 0.0, 0.0, 0.0, 0.0, 0.0, 0.0, 0.0]"
1606295385480774098,,88302,,1606295385,588975476,"""spatial""",,-0.888154406304,-0.378737375911,0.222297809963,-0.135363802542,"[-1.0, 0.0, 0.0, 0.0, 0.0, 0.0, 0.0, 0.0, 0.0]",,-0.39374640584,0.164276182652,-0.789465725422,"[-1.0, 0.0, 0.0, 0.0, 0.0, 0.0, 0.0, 0.0, 0.0]",,-4.78846740723,1.38648056984,-8.45775127411,"[-1.0, 0.0, 0.0, 0.0, 0.0, 0.0, 0.0, 0.0, 0.0]"
1606295385518469489,,88303,,1606295385,625565337,"""spatial""",,-0.878173358227,-0.402931690005,0.217273563177,-0.138743690033,"[-1.0, 0.0, 0.0, 0.0, 0.0, 0.0, 0.0, 0.0, 0.0]",,-0.481508105993,0.180282890797,-0.97527050972,"[-1.0, 0.0, 0.0, 0.0, 0.0, 0.0, 0.0, 0.0, 0.0]",,-4.80340528488,0.969889044762,-8.48857498169,"[-1.0, 0.0, 0.0, 0.0, 0.0, 0.0, 0.0, 0.0, 0.0]"
1606295385568008954,,88304,,1606295385,675288085,"""spatial""",,-0.866309989748,-0.429747833104,0.210901283686,-0.142633899469,"[-1.0, 0.0, 0.0, 0.0, 0.0, 0.0, 0.0, 0.0, 0.0]",,-0.561342477798,0.211724355817,-1.07996702194,"[-1.0, 0.0, 0.0, 0.0, 0.0, 0.0, 0.0, 0.0, 0.0]",,-4.58605718613,0.730572521687,-8.67795944214,"[-1.0, 0.0, 0.0, 0.0, 0.0, 0.0, 0.0, 0.0, 0.0]"
1606295385619495248,,88305,,1606295385,728639058,"""spatial""",,-0.852198213343,-0.458630731214,0.203722853521,-0.148030129071,"[-1.0, 0.0, 0.0, 0.0, 0.0, 0.0, 0.0, 0.0, 0.0]",,-0.653528153896,0.198053985834,-1.18125486374,"[-1.0, 0.0, 0.0, 0.0, 0.0, 0.0, 0.0, 0.0, 0.0]",,-4.34229803085,0.859431922436,-8.91410827637,"[-1.0, 0.0, 0.0, 0.0, 0.0, 0.0, 0.0, 0.0, 0.0]"
1606295385679205339,,88306,,1606295385,788154706,"""spatial""",,-0.834843816463,-0.49032036709,0.196488319315,-0.154964472348,"[-1.0, 0.0, 0.0, 0.0, 0.0, 0.0, 0.0, 0.0, 0.0]",,-0.743622720242,0.144286870956,-1.32220506668,"[-1.0, 0.0, 0.0, 0.0, 0.0, 0.0, 0.0, 0.0, 0.0]",,-4.328956604,0.958541870117,-9.21991157532,"[-1.0, 0.0, 0.0, 0.0, 0.0, 0.0, 0.0, 0.0, 0.0]"
1606295385734424590,,88307,,1606295385,834613729,"""spatial""",,-0.813735831792,-0.524490840226,0.18973927334,-0.16353076399,"[-1.0, 0.0, 0.0, 0.0, 0.0, 0.0, 0.0, 0.0, 0.0]",,-0.83902913332,0.102736607194,-1.48084688187,"[-1.0, 0.0, 0.0, 0.0, 0.0, 0.0, 0.0, 0.0, 0.0]",,-4.40760564804,1.21976268291,-9.01142120361,"[-1.0, 0.0, 0.0, 0.0, 0.0, 0.0, 0.0, 0.0, 0.0]"
1606295385784668708,,88308,,1606295385,893410764,"""spatial""",,-0.788455214288,-0.561414271751,0.18240579842,-0.172860102922,"[-1.0, 0.0, 0.0, 0.0, 0.0, 0.0, 0.0, 0.0, 0.0]",,-0.905587017536,0.0946307554841,-1.62352383137,"[-1.0, 0.0, 0.0, 0.0, 0.0, 0.0, 0.0, 0.0, 0.0]",,-4.39130878448,1.03203868866,-8.76596164703,"[-1.0, 0.0, 0.0, 0.0, 0.0, 0.0, 0.0, 0.0, 0.0]"
1606295385819546847,,88309,,1606295385,926108876,"""spatial""",,-0.761362940842,-0.597414281629,0.174581022626,-0.18150530927,"[-1.0, 0.0, 0.0, 0.0, 0.0, 0.0, 0.0, 0.0, 0.0]",,-0.884990692139,0.108942106366,-1.61936366558,"[-1.0, 0.0, 0.0, 0.0, 0.0, 0.0, 0.0, 0.0, 0.0]",,-4.45130205154,0.778241336346,-8.67599201202,"[-1.0, 0.0, 0.0, 0.0, 0.0, 0.0, 0.0, 0.0, 0.0]"
1606295385879734276,,88310,,1606295385,988346436,"""spatial""",,-0.734506415793,-0.630326550165,0.167177263884,-0.187724530834,"[-1.0, 0.0, 0.0, 0.0, 0.0, 0.0, 0.0, 0.0, 0.0]",,-0.793214678764,0.140045270324,-1.56254732609,"[-1.0, 0.0, 0.0, 0.0, 0.0, 0.0, 0.0, 0.0, 0.0]",,-4.43823194504,0.762716412544,-8.65476989746,"[-1.0, 0.0, 0.0, 0.0, 0.0, 0.0, 0.0, 0.0, 0.0]"
1606295385917470232,,88311,,1606295386,25239809,"""spatial""",,-0.706812259009,-0.6616202164,0.159939686544,-0.192599166185,"[-1.0, 0.0, 0.0, 0.0, 0.0, 0.0, 0.0, 0.0, 0.0]",,-0.733643293381,0.14174887538,-1.52024841309,"[-1.0, 0.0, 0.0, 0.0, 0.0, 0.0, 0.0, 0.0, 0.0]",,-4.41612529755,0.761821269989,-8.67564487457,"[-1.0, 0.0, 0.0, 0.0, 0.0, 0.0, 0.0, 0.0, 0.0]"
1606295385985507950,,88312,,1606295386,93496044,"""spatial""",,-0.678679167164,-0.691010970204,0.152828163184,-0.196321239988,"[-1.0, 0.0, 0.0, 0.0, 0.0, 0.0, 0.0, 0.0, 0.0]",,-0.691292643547,0.152582228184,-1.49306094646,"[-1.0, 0.0, 0.0, 0.0, 0.0, 0.0, 0.0, 0.0, 0.0]",,-4.40261602402,0.788770914078,-8.78347206116,"[-1.0, 0.0, 0.0, 0.0, 0.0, 0.0, 0.0, 0.0, 0.0]"
1606295386017611926,,88313,,1606295386,126109093,"""spatial""",,-0.649310064985,-0.719262085079,0.146280905783,-0.199149143375,"[-1.0, 0.0, 0.0, 0.0, 0.0, 0.0, 0.0, 0.0, 0.0]",,-0.65664434433,0.144605278969,-1.51068866253,"[-1.0, 0.0, 0.0, 0.0, 0.0, 0.0, 0.0, 0.0, 0.0]",,-4.39085197449,0.728331625462,-8.88169956207,"[-1.0, 0.0, 0.0, 0.0, 0.0, 0.0, 0.0, 0.0, 0.0]"
1606295386074524842,,88314,,1606295386,183782703,"""spatial""",,-0.618832735791,-0.746256398712,0.139970774454,-0.201384538463,"[-1.0, 0.0, 0.0, 0.0, 0.0, 0.0, 0.0, 0.0, 0.0]",,-0.634726583958,0.137742251158,-1.51263058186,"[-1.0, 0.0, 0.0, 0.0, 0.0, 0.0, 0.0, 0.0, 0.0]",,-4.40002393723,0.583144724369,-8.87524700165,"[-1.0, 0.0, 0.0, 0.0, 0.0, 0.0, 0.0, 0.0, 0.0]"
1606295386124837172,,88315,,1606295386,233126514,"""spatial""",,-0.588206644027,-0.77145060464,0.133639962194,-0.20252749514,"[-1.0, 0.0, 0.0, 0.0, 0.0, 0.0, 0.0, 0.0, 0.0]",,-0.598516523838,0.161030247808,-1.46336627007,"[-1.0, 0.0, 0.0, 0.0, 0.0, 0.0, 0.0, 0.0, 0.0]",,-4.29022073746,0.221270486712,-8.83028316498,"[-1.0, 0.0, 0.0, 0.0, 0.0, 0.0, 0.0, 0.0, 0.0]"
1606295386179256527,,88316,,1606295386,288568974,"""spatial""",,-0.558756775975,-0.793827641457,0.127458268118,-0.20342795729,"[-1.0, 0.0, 0.0, 0.0, 0.0, 0.0, 0.0, 0.0, 0.0]",,-0.569786608219,0.136277526617,-1.3545550108,"[-1.0, 0.0, 0.0, 0.0, 0.0, 0.0, 0.0, 0.0, 0.0]",,-4.28070163727,-0.114126861095,-8.87783432007,"[-1.0, 0.0, 0.0, 0.0, 0.0, 0.0, 0.0, 0.0, 0.0]"
1606295386217058861,,88317,,1606295386,325302298,"""spatial""",,-0.531050322847,-0.813391323452,0.120925345914,-0.204345718088,"[-1.0, 0.0, 0.0, 0.0, 0.0, 0.0, 0.0, 0.0, 0.0]",,-0.548962533474,0.140827268362,-1.23455870152,"[-1.0, 0.0, 0.0, 0.0, 0.0, 0.0, 0.0, 0.0, 0.0]",,-4.41225337982,-0.0914183109999,-8.83269500732,"[-1.0, 0.0, 0.0, 0.0, 0.0, 0.0, 0.0, 0.0, 0.0]"
1606295386270497824,,88318,,1606295386,379207946,"""spatial""",,-0.505096504269,-0.830604391412,0.114283566303,-0.204727046968,"[-1.0, 0.0, 0.0, 0.0, 0.0, 0.0, 0.0, 0.0, 0.0]",,-0.5158162117,0.143943607807,-1.132594347,"[-1.0, 0.0, 0.0, 0.0, 0.0, 0.0, 0.0, 0.0, 0.0]",,-4.33638000488,-0.0106511153281,-8.94729232788,"[-1.0, 0.0, 0.0, 0.0, 0.0, 0.0, 0.0, 0.0, 0.0]"
1606295386319595082,,88319,,1606295386,428331382,"""spatial""",,-0.481357955658,-0.845310786093,0.108374383212,-0.204936943542,"[-1.0, 0.0, 0.0, 0.0, 0.0, 0.0, 0.0, 0.0, 0.0]",,-0.463284343481,0.126576036215,-1.04187655449,"[-1.0, 0.0, 0.0, 0.0, 0.0, 0.0, 0.0, 0.0, 0.0]",,-4.24238538742,0.068753041327,-8.97197341919,"[-1.0, 0.0, 0.0, 0.0, 0.0, 0.0, 0.0, 0.0, 0.0]"
1606295386380428816,,88320,,1606295386,488773529,"""spatial""",,-0.458062949944,-0.858860007438,0.102637122385,-0.204947417034,"[-1.0, 0.0, 0.0, 0.0, 0.0, 0.0, 0.0, 0.0, 0.0]",,-0.443351209164,0.123949870467,-0.982815504074,"[-1.0, 0.0, 0.0, 0.0, 0.0, 0.0, 0.0, 0.0, 0.0]",,-4.26155233383,-0.223063603044,-8.88986873627,"[-1.0, 0.0, 0.0, 0.0, 0.0, 0.0, 0.0, 0.0, 0.0]"
1606295386420129650,,88321,,1606295386,525482090,"""spatial""",,-0.436884938284,-0.870492938023,0.0962106868281,-0.205224585246,"[-1.0, 0.0, 0.0, 0.0, 0.0, 0.0, 0.0, 0.0, 0.0]",,-0.448257297277,0.115163289011,-0.862424373627,"[-1.0, 0.0, 0.0, 0.0, 0.0, 0.0, 0.0, 0.0, 0.0]",,-4.14933729172,-0.327674984932,-9.06124782562,"[-1.0, 0.0, 0.0, 0.0, 0.0, 0.0, 0.0, 0.0, 0.0]"
1606295386475016247,,88322,,1606295386,583349551,"""spatial""",,-0.417061104866,-0.880561799058,0.0897293023173,-0.206445305493,"[-1.0, 0.0, 0.0, 0.0, 0.0, 0.0, 0.0, 0.0, 0.0]",,-0.454826712608,0.0715750381351,-0.802710056305,"[-1.0, 0.0, 0.0, 0.0, 0.0, 0.0, 0.0, 0.0, 0.0]",,-4.08991527557,-0.174716219306,-9.06178379059,"[-1.0, 0.0, 0.0, 0.0, 0.0, 0.0, 0.0, 0.0, 0.0]"
1606295386521843278,,88323,,1606295386,628437699,"""spatial""",,-0.397252212507,-0.889853704015,0.0832537867551,-0.208374545873,"[-1.0, 0.0, 0.0, 0.0, 0.0, 0.0, 0.0, 0.0, 0.0]",,-0.457234501839,0.0458502061665,-0.78553712368,"[-1.0, 0.0, 0.0, 0.0, 0.0, 0.0, 0.0, 0.0, 0.0]",,-4.1584610939,-0.184510052204,-8.93895339966,"[-1.0, 0.0, 0.0, 0.0, 0.0, 0.0, 0.0, 0.0, 0.0]"
1606295386576318461,,88324,,1606295386,684272422,"""spatial""",,-0.378317951548,-0.898269881754,0.0762643483272,-0.210167973303,"[-1.0, 0.0, 0.0, 0.0, 0.0, 0.0, 0.0, 0.0, 0.0]",,-0.451739132404,0.061671141535,-0.737735152245,"[-1.0, 0.0, 0.0, 0.0, 0.0, 0.0, 0.0, 0.0, 0.0]",,-4.09950399399,-0.160887122154,-8.86416912079,"[-1.0, 0.0, 0.0, 0.0, 0.0, 0.0, 0.0, 0.0, 0.0]"
1606295386633793882,,88325,,1606295386,738719632,"""spatial""",,-0.360151226847,-0.90580624403,0.0694242519887,-0.212099984839,"[-1.0, 0.0, 0.0, 0.0, 0.0, 0.0, 0.0, 0.0, 0.0]",,-0.452663391829,0.0403657071292,-0.691794753075,"[-1.0, 0.0, 0.0, 0.0, 0.0, 0.0, 0.0, 0.0, 0.0]",,-4.05273151398,-0.115890868008,-9.0885219574,"[-1.0, 0.0, 0.0, 0.0, 0.0, 0.0, 0.0, 0.0, 0.0]"
1606295386707347483,,88326,,1606295386,778444281,"""spatial""",,-0.343215843398,-0.912313232751,0.0626691816486,-0.214383042744,"[-1.0, 0.0, 0.0, 0.0, 0.0, 0.0, 0.0, 0.0, 0.0]",,-0.425797492266,0.0239815041423,-0.636965036392,"[-1.0, 0.0, 0.0, 0.0, 0.0, 0.0, 0.0, 0.0, 0.0]",,-4.08044910431,0.234484821558,-9.02145004272,"[-1.0, 0.0, 0.0, 0.0, 0.0, 0.0, 0.0, 0.0, 0.0]"
