rosbagTimestamp,header,seq,stamp,secs,nsecs,frame_id,status,status,service,latitude,longitude,altitude,position_covariance,position_covariance_type
1606295379778762955,,44082,,1606295378,738045737,"""spatial""",,0,0,38.2546350405,140.835519582,197.486877441,"[-1.0, 0.0, 0.0, 0.0, 0.0, 0.0, 0.0, 0.0, 0.0]",0
1606295379778789811,,44083,,1606295378,842897146,"""spatial""",,0,0,38.2546350271,140.835519578,197.486679077,"[-1.0, 0.0, 0.0, 0.0, 0.0, 0.0, 0.0, 0.0, 0.0]",0
1606295379778827747,,44084,,1606295378,933588455,"""spatial""",,0,0,38.2546349864,140.835519582,197.487121582,"[-1.0, 0.0, 0.0, 0.0, 0.0, 0.0, 0.0, 0.0, 0.0]",0
1606295379778861107,,44085,,1606295379,43111388,"""spatial""",,0,0,38.2546349772,140.835519569,197.486923218,"[-1.0, 0.0, 0.0, 0.0, 0.0, 0.0, 0.0, 0.0, 0.0]",0
1606295379778958814,,44086,,1606295379,133718810,"""spatial""",,0,0,38.254634957,140.835519581,197.486923218,"[-1.0, 0.0, 0.0, 0.0, 0.0, 0.0, 0.0, 0.0, 0.0]",0
1606295379779008144,,44087,,1606295379,238575056,"""spatial""",,0,0,38.2546349271,140.835519605,197.487075806,"[-1.0, 0.0, 0.0, 0.0, 0.0, 0.0, 0.0, 0.0, 0.0]",0
1606295379779028970,,44088,,1606295379,329066840,"""spatial""",,0,0,38.2546348978,140.835519614,197.486343384,"[-1.0, 0.0, 0.0, 0.0, 0.0, 0.0, 0.0, 0.0, 0.0]",0
1606295379779192473,,44089,,1606295379,433929773,"""spatial""",,0,0,38.2546348991,140.835519631,197.48626709,"[-1.0, 0.0, 0.0, 0.0, 0.0, 0.0, 0.0, 0.0, 0.0]",0
1606295379779340599,,44090,,1606295379,529790645,"""spatial""",,0,0,38.2546349005,140.835519639,197.485900879,"[-1.0, 0.0, 0.0, 0.0, 0.0, 0.0, 0.0, 0.0, 0.0]",0
1606295379779368913,,44091,,1606295379,634087016,"""spatial""",,0,0,38.2546349083,140.835519661,197.485626221,"[-1.0, 0.0, 0.0, 0.0, 0.0, 0.0, 0.0, 0.0, 0.0]",0
1606295379779517799,,44092,,1606295379,728485137,"""spatial""",,0,0,38.2546349212,140.835519669,197.485855103,"[-1.0, 0.0, 0.0, 0.0, 0.0, 0.0, 0.0, 0.0, 0.0]",0
1606295379779756365,,44093,,1606295379,833382933,"""spatial""",,0,0,38.2546349508,140.835519684,197.48651123,"[-1.0, 0.0, 0.0, 0.0, 0.0, 0.0, 0.0, 0.0, 0.0]",0
1606295379834583951,,44094,,1606295379,943574066,"""spatial""",,0,0,38.2546349531,140.835519722,197.487335205,"[-1.0, 0.0, 0.0, 0.0, 0.0, 0.0, 0.0, 0.0, 0.0]",0
1606295379927290339,,44095,,1606295380,34509913,"""spatial""",,0,0,38.2546349682,140.83551975,197.487106323,"[-1.0, 0.0, 0.0, 0.0, 0.0, 0.0, 0.0, 0.0, 0.0]",0
1606295380035105946,,44096,,1606295380,143766971,"""spatial""",,0,0,38.2546349636,140.835519753,197.487121582,"[-1.0, 0.0, 0.0, 0.0, 0.0, 0.0, 0.0, 0.0, 0.0]",0
1606295380121156211,,44097,,1606295380,229227193,"""spatial""",,0,0,38.2546349759,140.835519782,197.486953735,"[-1.0, 0.0, 0.0, 0.0, 0.0, 0.0, 0.0, 0.0, 0.0]",0
1606295380232143337,,44098,,1606295380,339293814,"""spatial""",,0,0,38.254634998,140.83551981,197.487136841,"[-1.0, 0.0, 0.0, 0.0, 0.0, 0.0, 0.0, 0.0, 0.0]",0
1606295380321836963,,44099,,1606295380,427930573,"""spatial""",,0,0,38.2546350429,140.835519828,197.487411499,"[-1.0, 0.0, 0.0, 0.0, 0.0, 0.0, 0.0, 0.0, 0.0]",0
1606295380433913130,,44100,,1606295380,542938269,"""spatial""",,0,0,38.2546350623,140.835519856,197.487625122,"[-1.0, 0.0, 0.0, 0.0, 0.0, 0.0, 0.0, 0.0, 0.0]",0
1606295380521820429,,44101,,1606295380,627788153,"""spatial""",,0,0,38.2546351639,140.835519864,197.489807129,"[-1.0, 0.0, 0.0, 0.0, 0.0, 0.0, 0.0, 0.0, 0.0]",0
1606295380632281809,,44102,,1606295380,738842374,"""spatial""",,0,0,38.2546352066,140.835519875,197.492492676,"[-1.0, 0.0, 0.0, 0.0, 0.0, 0.0, 0.0, 0.0, 0.0]",0
1606295380735307196,,44103,,1606295380,843297845,"""spatial""",,0,0,38.2546352411,140.835519882,197.492904663,"[-1.0, 0.0, 0.0, 0.0, 0.0, 0.0, 0.0, 0.0, 0.0]",0
1606295380830218799,,44104,,1606295380,934358654,"""spatial""",,0,0,38.2546352716,140.835519868,197.495880127,"[-1.0, 0.0, 0.0, 0.0, 0.0, 0.0, 0.0, 0.0, 0.0]",0
1606295380944303096,,44105,,1606295381,43476974,"""spatial""",,0,0,38.2546353041,140.835519908,197.493484497,"[-1.0, 0.0, 0.0, 0.0, 0.0, 0.0, 0.0, 0.0, 0.0]",0
1606295381288971042,,44106,,1606295381,134416671,"""spatial""",,0,0,38.2546353174,140.835519904,197.49446106,"[-1.0, 0.0, 0.0, 0.0, 0.0, 0.0, 0.0, 0.0, 0.0]",0
1606295381347679113,,44107,,1606295381,238540067,"""spatial""",,0,0,38.2546353635,140.835519959,197.495178223,"[-1.0, 0.0, 0.0, 0.0, 0.0, 0.0, 0.0, 0.0, 0.0]",0
1606295381347687005,,44108,,1606295381,329256364,"""spatial""",,0,0,38.2546353829,140.83552,197.496505737,"[-1.0, 0.0, 0.0, 0.0, 0.0, 0.0, 0.0, 0.0, 0.0]",0
1606295381447463210,,44109,,1606295381,434267772,"""spatial""",,0,0,38.2546354238,140.835520013,197.496704102,"[-1.0, 0.0, 0.0, 0.0, 0.0, 0.0, 0.0, 0.0, 0.0]",0
1606295381499080548,,44110,,1606295381,533434318,"""spatial""",,0,0,38.2546354315,140.835520069,197.496795654,"[-1.0, 0.0, 0.0, 0.0, 0.0, 0.0, 0.0, 0.0, 0.0]",0
1606295381563108270,,44111,,1606295381,634419414,"""spatial""",,0,0,38.2546355397,140.835520082,197.498153687,"[-1.0, 0.0, 0.0, 0.0, 0.0, 0.0, 0.0, 0.0, 0.0]",0
1606295381690799264,,44112,,1606295381,728471511,"""spatial""",,0,0,38.2546355617,140.835520123,197.496643066,"[-1.0, 0.0, 0.0, 0.0, 0.0, 0.0, 0.0, 0.0, 0.0]",0
1606295381746010255,,44113,,1606295381,833967319,"""spatial""",,0,0,38.254635684,140.835520112,197.49822998,"[-1.0, 0.0, 0.0, 0.0, 0.0, 0.0, 0.0, 0.0, 0.0]",0
1606295381845144169,,44114,,1606295381,943566065,"""spatial""",,0,0,38.2546358588,140.835520128,197.503326416,"[-1.0, 0.0, 0.0, 0.0, 0.0, 0.0, 0.0, 0.0, 0.0]",0
1606295381973023703,,44115,,1606295382,34287374,"""spatial""",,0,0,38.2546360552,140.835520243,197.506317139,"[-1.0, 0.0, 0.0, 0.0, 0.0, 0.0, 0.0, 0.0, 0.0]",0
1606295382037590923,,44116,,1606295382,143825670,"""spatial""",,0,0,38.2546361857,140.835520268,197.506347656,"[-1.0, 0.0, 0.0, 0.0, 0.0, 0.0, 0.0, 0.0, 0.0]",0
1606295382124885224,,44117,,1606295382,230254429,"""spatial""",,0,0,38.2546362444,140.835520386,197.506317139,"[-1.0, 0.0, 0.0, 0.0, 0.0, 0.0, 0.0, 0.0, 0.0]",0
1606295382235879907,,44118,,1606295382,343164425,"""spatial""",,0,0,38.2546363328,140.835520449,197.50642395,"[-1.0, 0.0, 0.0, 0.0, 0.0, 0.0, 0.0, 0.0, 0.0]",0
1606295382321082988,,44119,,1606295382,427968734,"""spatial""",,0,0,38.2546363905,140.835520477,197.505249023,"[-1.0, 0.0, 0.0, 0.0, 0.0, 0.0, 0.0, 0.0, 0.0]",0
1606295382434613671,,44120,,1606295382,543264292,"""spatial""",,0,0,38.2546364338,140.835520511,197.501708984,"[-1.0, 0.0, 0.0, 0.0, 0.0, 0.0, 0.0, 0.0, 0.0]",0
1606295382521226668,,44121,,1606295382,628715101,"""spatial""",,0,0,38.2546365203,140.835520551,197.4896698,"[-1.0, 0.0, 0.0, 0.0, 0.0, 0.0, 0.0, 0.0, 0.0]",0
1606295382631980456,,44122,,1606295382,738972160,"""spatial""",,0,0,38.2546365644,140.835520581,197.485855103,"[-1.0, 0.0, 0.0, 0.0, 0.0, 0.0, 0.0, 0.0, 0.0]",0
1606295382739056798,,44123,,1606295382,843514431,"""spatial""",,0,0,38.2546365373,140.835520608,197.508972168,"[-1.0, 0.0, 0.0, 0.0, 0.0, 0.0, 0.0, 0.0, 0.0]",0
1606295383053714376,,44124,,1606295382,934489415,"""spatial""",,0,0,38.2546365559,140.835520637,197.502059937,"[-1.0, 0.0, 0.0, 0.0, 0.0, 0.0, 0.0, 0.0, 0.0]",0
1606295383091516145,,44125,,1606295383,43704748,"""spatial""",,0,0,38.2546366121,140.835520578,197.487487793,"[-1.0, 0.0, 0.0, 0.0, 0.0, 0.0, 0.0, 0.0, 0.0]",0
1606295383091519380,,44126,,1606295383,134760057,"""spatial""",,0,0,38.2546366374,140.835520658,197.480331421,"[-1.0, 0.0, 0.0, 0.0, 0.0, 0.0, 0.0, 0.0, 0.0]",0
1606295383192315413,,44127,,1606295383,238796316,"""spatial""",,0,0,38.2546367159,140.835520665,197.477172852,"[-1.0, 0.0, 0.0, 0.0, 0.0, 0.0, 0.0, 0.0, 0.0]",0
1606295383276130468,,44128,,1606295383,333386050,"""spatial""",,0,0,38.2546366068,140.835520581,197.4894104,"[-1.0, 0.0, 0.0, 0.0, 0.0, 0.0, 0.0, 0.0, 0.0]",0
1606295383420492366,,44129,,1606295383,434704496,"""spatial""",,0,0,38.254636698,140.835520554,197.493133545,"[-1.0, 0.0, 0.0, 0.0, 0.0, 0.0, 0.0, 0.0, 0.0]",0
1606295383444221250,,44130,,1606295383,533795704,"""spatial""",,0,0,38.2546367071,140.835520582,197.49206543,"[-1.0, 0.0, 0.0, 0.0, 0.0, 0.0, 0.0, 0.0, 0.0]",0
1606295383531160393,,44131,,1606295383,638438250,"""spatial""",,0,0,38.2546367744,140.835520565,197.495040894,"[-1.0, 0.0, 0.0, 0.0, 0.0, 0.0, 0.0, 0.0, 0.0]",0
1606295383636212484,,44132,,1606295383,729656147,"""spatial""",,0,0,38.2546367217,140.835520503,197.488601685,"[-1.0, 0.0, 0.0, 0.0, 0.0, 0.0, 0.0, 0.0, 0.0]",0
1606295383727662364,,44133,,1606295383,834257418,"""spatial""",,0,0,38.2546367336,140.835520531,197.489822388,"[-1.0, 0.0, 0.0, 0.0, 0.0, 0.0, 0.0, 0.0, 0.0]",0
1606295383836754717,,44134,,1606295383,943853789,"""spatial""",,0,0,38.2546367113,140.835520377,197.483810425,"[-1.0, 0.0, 0.0, 0.0, 0.0, 0.0, 0.0, 0.0, 0.0]",0
1606295383925921066,,44135,,1606295384,34378410,"""spatial""",,0,0,38.2546367318,140.83552041,197.483139038,"[-1.0, 0.0, 0.0, 0.0, 0.0, 0.0, 0.0, 0.0, 0.0]",0
1606295384019052391,,44136,,1606295384,126759969,"""spatial""",,0,0,38.254636759,140.835520188,197.482452393,"[-1.0, 0.0, 0.0, 0.0, 0.0, 0.0, 0.0, 0.0, 0.0]",0
1606295384165018776,,44137,,1606295384,229756628,"""spatial""",,0,0,38.2546368036,140.835520226,197.482437134,"[-1.0, 0.0, 0.0, 0.0, 0.0, 0.0, 0.0, 0.0, 0.0]",0
1606295384234454531,,44138,,1606295384,343243049,"""spatial""",,0,0,38.2546367447,140.835519887,197.477554321,"[-1.0, 0.0, 0.0, 0.0, 0.0, 0.0, 0.0, 0.0, 0.0]",0
1606295384320989187,,44139,,1606295384,429140445,"""spatial""",,0,0,38.2546367706,140.835519761,197.477172852,"[-1.0, 0.0, 0.0, 0.0, 0.0, 0.0, 0.0, 0.0, 0.0]",0
1606295384435537941,,44140,,1606295384,543709403,"""spatial""",,0,0,38.2546366651,140.835519485,197.47593689,"[-1.0, 0.0, 0.0, 0.0, 0.0, 0.0, 0.0, 0.0, 0.0]",0
1606295384521532334,,44141,,1606295384,628886975,"""spatial""",,0,0,38.2546366204,140.835519174,197.475708008,"[-1.0, 0.0, 0.0, 0.0, 0.0, 0.0, 0.0, 0.0, 0.0]",0
1606295384632010300,,44142,,1606295384,738994133,"""spatial""",,0,0,38.2546366191,140.835519085,197.472564697,"[-1.0, 0.0, 0.0, 0.0, 0.0, 0.0, 0.0, 0.0, 0.0]",0
1606295384735777081,,44143,,1606295384,843702529,"""spatial""",,0,0,38.2546366016,140.83551878,197.470947266,"[-1.0, 0.0, 0.0, 0.0, 0.0, 0.0, 0.0, 0.0, 0.0]",0
1606295384861079677,,44144,,1606295384,935001114,"""spatial""",,0,0,38.2546366928,140.835518957,197.469985962,"[-1.0, 0.0, 0.0, 0.0, 0.0, 0.0, 0.0, 0.0, 0.0]",0
1606295384935067196,,44145,,1606295385,43823734,"""spatial""",,0,0,38.254636753,140.835518808,197.468734741,"[-1.0, 0.0, 0.0, 0.0, 0.0, 0.0, 0.0, 0.0, 0.0]",0
1606295385026022284,,44146,,1606295385,134687156,"""spatial""",,0,0,38.2546368848,140.835519216,197.468978882,"[-1.0, 0.0, 0.0, 0.0, 0.0, 0.0, 0.0, 0.0, 0.0]",0
1606295385134562094,,44147,,1606295385,243122952,"""spatial""",,0,0,38.2546369665,140.835519274,197.468582153,"[-1.0, 0.0, 0.0, 0.0, 0.0, 0.0, 0.0, 0.0, 0.0]",0
1606295385225408471,,44148,,1606295385,333865173,"""spatial""",,0,0,38.2546369403,140.835519591,197.464950562,"[-1.0, 0.0, 0.0, 0.0, 0.0, 0.0, 0.0, 0.0, 0.0]",0
1606295385337505049,,44149,,1606295385,438519057,"""spatial""",,0,0,38.2546369217,140.835519736,197.464385986,"[-1.0, 0.0, 0.0, 0.0, 0.0, 0.0, 0.0, 0.0, 0.0]",0
1606295385427764722,,44150,,1606295385,534187966,"""spatial""",,0,0,38.2546368863,140.835519953,197.463897705,"[-1.0, 0.0, 0.0, 0.0, 0.0, 0.0, 0.0, 0.0, 0.0]",0
1606295385530295009,,44151,,1606295385,638424124,"""spatial""",,0,0,38.2546367834,140.835520182,197.463241577,"[-1.0, 0.0, 0.0, 0.0, 0.0, 0.0, 0.0, 0.0, 0.0]",0
1606295385621698733,,44152,,1606295385,729214258,"""spatial""",,0,0,38.2546368379,140.835520121,197.463134766,"[-1.0, 0.0, 0.0, 0.0, 0.0, 0.0, 0.0, 0.0, 0.0]",0
1606295385735068581,,44153,,1606295385,835253229,"""spatial""",,0,0,38.2546367963,140.835520338,197.462402344,"[-1.0, 0.0, 0.0, 0.0, 0.0, 0.0, 0.0, 0.0, 0.0]",0
1606295385839914043,,44154,,1606295385,926801401,"""spatial""",,0,0,38.2546367702,140.835520587,197.46257019,"[-1.0, 0.0, 0.0, 0.0, 0.0, 0.0, 0.0, 0.0, 0.0]",0
1606295385928528666,,44155,,1606295386,34219259,"""spatial""",,0,0,38.2546367619,140.83552082,197.462295532,"[-1.0, 0.0, 0.0, 0.0, 0.0, 0.0, 0.0, 0.0, 0.0]",0
1606295386018355164,,44156,,1606295386,126668043,"""spatial""",,0,0,38.2546367763,140.835521039,197.461532593,"[-1.0, 0.0, 0.0, 0.0, 0.0, 0.0, 0.0, 0.0, 0.0]",0
1606295386127429587,,44157,,1606295386,234003351,"""spatial""",,0,0,38.2546368039,140.835521236,197.460525513,"[-1.0, 0.0, 0.0, 0.0, 0.0, 0.0, 0.0, 0.0, 0.0]",0
1606295386236747593,,44158,,1606295386,343666722,"""spatial""",,0,0,38.2546368445,140.835521387,197.459869385,"[-1.0, 0.0, 0.0, 0.0, 0.0, 0.0, 0.0, 0.0, 0.0]",0
1606295386320780665,,44159,,1606295386,428939244,"""spatial""",,0,0,38.2546368761,140.835521492,197.459182739,"[-1.0, 0.0, 0.0, 0.0, 0.0, 0.0, 0.0, 0.0, 0.0]",0
1606295386436290693,,44160,,1606295386,543866865,"""spatial""",,0,0,38.2546369102,140.835521567,197.458953857,"[-1.0, 0.0, 0.0, 0.0, 0.0, 0.0, 0.0, 0.0, 0.0]",0
1606295386523983895,,44161,,1606295386,629173836,"""spatial""",,0,0,38.2546362699,140.835520596,197.467315674,"[-1.0, 0.0, 0.0, 0.0, 0.0, 0.0, 0.0, 0.0, 0.0]",0
1606295386634640123,,44162,,1606295386,739246020,"""spatial""",,0,0,38.254636226,140.835520513,197.467147827,"[-1.0, 0.0, 0.0, 0.0, 0.0, 0.0, 0.0, 0.0, 0.0]",0
1606295387154843106,,44163,,1606295386,844108841,"""spatial""",,0,0,38.2546358922,140.83552032,197.4712677,"[-1.0, 0.0, 0.0, 0.0, 0.0, 0.0, 0.0, 0.0, 0.0]",0
1606295387194664866,,44164,,1606295386,935042000,"""spatial""",,0,0,38.2546358034,140.835520191,197.471084595,"[-1.0, 0.0, 0.0, 0.0, 0.0, 0.0, 0.0, 0.0, 0.0]",0
1606295387194674851,,44165,,1606295387,28296159,"""spatial""",,0,0,38.2546355339,140.835520198,197.475982666,"[-1.0, 0.0, 0.0, 0.0, 0.0, 0.0, 0.0, 0.0, 0.0]",0
1606295387321472393,,44166,,1606295387,138937617,"""spatial""",,0,0,38.2546353775,140.835520056,197.476867676,"[-1.0, 0.0, 0.0, 0.0, 0.0, 0.0, 0.0, 0.0, 0.0]",0
1606295387321477271,,44167,,1606295387,243365863,"""spatial""",,0,0,38.2546352679,140.835520041,197.479293823,"[-1.0, 0.0, 0.0, 0.0, 0.0, 0.0, 0.0, 0.0, 0.0]",0
1606295387432118085,,44168,,1606295387,334119897,"""spatial""",,0,0,38.254635081,140.835519864,197.480407715,"[-1.0, 0.0, 0.0, 0.0, 0.0, 0.0, 0.0, 0.0, 0.0]",0
1606295387432126228,,44169,,1606295387,438392968,"""spatial""",,0,0,38.2546352062,140.835519917,197.482788086,"[-1.0, 0.0, 0.0, 0.0, 0.0, 0.0, 0.0, 0.0, 0.0]",0
1606295387490624456,,44170,,1606295387,534207527,"""spatial""",,0,0,38.2546351033,140.835519769,197.484542847,"[-1.0, 0.0, 0.0, 0.0, 0.0, 0.0, 0.0, 0.0, 0.0]",0
1606295387554014902,,44171,,1606295387,638548898,"""spatial""",,0,0,38.2546353527,140.835519925,197.486938477,"[-1.0, 0.0, 0.0, 0.0, 0.0, 0.0, 0.0, 0.0, 0.0]",0
1606295387644207783,,44172,,1606295387,729563382,"""spatial""",,0,0,38.2546353264,140.835519841,197.488418579,"[-1.0, 0.0, 0.0, 0.0, 0.0, 0.0, 0.0, 0.0, 0.0]",0
1606295387728539407,,44173,,1606295387,834418840,"""spatial""",,0,0,38.2546355581,140.835520007,197.489456177,"[-1.0, 0.0, 0.0, 0.0, 0.0, 0.0, 0.0, 0.0, 0.0]",0
1606295387818609623,,44174,,1606295387,926975462,"""spatial""",,0,0,38.2546355707,140.835520006,197.489562988,"[-1.0, 0.0, 0.0, 0.0, 0.0, 0.0, 0.0, 0.0, 0.0]",0
1606295387932952373,,44175,,1606295388,34620983,"""spatial""",,0,0,38.2546357872,140.835520238,197.491027832,"[-1.0, 0.0, 0.0, 0.0, 0.0, 0.0, 0.0, 0.0, 0.0]",0
1606295388042475696,,44176,,1606295388,128897379,"""spatial""",,0,0,38.2546358526,140.835520303,197.491378784,"[-1.0, 0.0, 0.0, 0.0, 0.0, 0.0, 0.0, 0.0, 0.0]",0
1606295388126718576,,44177,,1606295388,234390450,"""spatial""",,0,0,38.2546359837,140.835520591,197.494903564,"[-1.0, 0.0, 0.0, 0.0, 0.0, 0.0, 0.0, 0.0, 0.0]",0
1606295388238631218,,44178,,1606295388,343839583,"""spatial""",,0,0,38.2546360625,140.835520727,197.495788574,"[-1.0, 0.0, 0.0, 0.0, 0.0, 0.0, 0.0, 0.0, 0.0]",0
1606295388325990793,,44179,,1606295388,429694030,"""spatial""",,0,0,38.2546360938,140.835521034,197.495941162,"[-1.0, 0.0, 0.0, 0.0, 0.0, 0.0, 0.0, 0.0, 0.0]",0
1606295388435556999,,44180,,1606295388,543836726,"""spatial""",,0,0,38.2546361751,140.835521241,197.496704102,"[-1.0, 0.0, 0.0, 0.0, 0.0, 0.0, 0.0, 0.0, 0.0]",0
1606295388538621925,,44181,,1606295388,629606198,"""spatial""",,0,0,38.25463613,140.835521436,197.498809814,"[-1.0, 0.0, 0.0, 0.0, 0.0, 0.0, 0.0, 0.0, 0.0]",0
1606295388632626697,,44182,,1606295388,739938256,"""spatial""",,0,0,38.2546361631,140.83552166,197.500305176,"[-1.0, 0.0, 0.0, 0.0, 0.0, 0.0, 0.0, 0.0, 0.0]",0
1606295388719932604,,44183,,1606295388,828187515,"""spatial""",,0,0,38.2546361084,140.835521756,197.499465942,"[-1.0, 0.0, 0.0, 0.0, 0.0, 0.0, 0.0, 0.0, 0.0]",0
1606295388831734465,,44184,,1606295388,939824686,"""spatial""",,0,0,38.2546361107,140.835521984,197.500305176,"[-1.0, 0.0, 0.0, 0.0, 0.0, 0.0, 0.0, 0.0, 0.0]",0
1606295388920817620,,44185,,1606295389,29036995,"""spatial""",,0,0,38.2546361145,140.835521902,197.500549316,"[-1.0, 0.0, 0.0, 0.0, 0.0, 0.0, 0.0, 0.0, 0.0]",0
1606295389034445449,,44186,,1606295389,139174041,"""spatial""",,0,0,38.2546361226,140.835522074,197.501556396,"[-1.0, 0.0, 0.0, 0.0, 0.0, 0.0, 0.0, 0.0, 0.0]",0
1606295389134593006,,44187,,1606295389,243502274,"""spatial""",,0,0,38.254636154,140.835521872,197.501235962,"[-1.0, 0.0, 0.0, 0.0, 0.0, 0.0, 0.0, 0.0, 0.0]",0
1606295389227171245,,44188,,1606295389,334375546,"""spatial""",,0,0,38.2546361945,140.835521976,197.502059937,"[-1.0, 0.0, 0.0, 0.0, 0.0, 0.0, 0.0, 0.0, 0.0]",0
1606295389346282035,,44189,,1606295389,438746267,"""spatial""",,0,0,38.2546361903,140.835521621,197.502197266,"[-1.0, 0.0, 0.0, 0.0, 0.0, 0.0, 0.0, 0.0, 0.0]",0
1606295389438632775,,44190,,1606295389,535175038,"""spatial""",,0,0,38.2546362317,140.835521597,197.503173828,"[-1.0, 0.0, 0.0, 0.0, 0.0, 0.0, 0.0, 0.0, 0.0]",0
1606295389562011740,,44191,,1606295389,638908572,"""spatial""",,0,0,38.2546361456,140.835521212,197.501693726,"[-1.0, 0.0, 0.0, 0.0, 0.0, 0.0, 0.0, 0.0, 0.0]",0
1606295389763344819,,44192,,1606295389,729920081,"""spatial""",,0,0,38.2546361472,140.835521077,197.501678467,"[-1.0, 0.0, 0.0, 0.0, 0.0, 0.0, 0.0, 0.0, 0.0]",0
1606295390060065794,,44193,,1606295389,834684702,"""spatial""",,0,0,38.2546360411,140.835520845,197.502761841,"[-1.0, 0.0, 0.0, 0.0, 0.0, 0.0, 0.0, 0.0, 0.0]",0
1606295390196123341,,44194,,1606295389,929412210,"""spatial""",,0,0,38.2546360119,140.83552065,197.503295898,"[-1.0, 0.0, 0.0, 0.0, 0.0, 0.0, 0.0, 0.0, 0.0]",0
1606295390196137780,,44195,,1606295390,35095881,"""spatial""",,0,0,38.2546358929,140.835520505,197.503936768,"[-1.0, 0.0, 0.0, 0.0, 0.0, 0.0, 0.0, 0.0, 0.0]",0
1606295390294693571,,44196,,1606295390,129388478,"""spatial""",,0,0,38.2546358321,140.835520338,197.504257202,"[-1.0, 0.0, 0.0, 0.0, 0.0, 0.0, 0.0, 0.0, 0.0]",0
1606295390294707508,,44197,,1606295390,234487424,"""spatial""",,0,0,38.2546357593,140.835520247,197.50491333,"[-1.0, 0.0, 0.0, 0.0, 0.0, 0.0, 0.0, 0.0, 0.0]",0
1606295390357278507,,44198,,1606295390,344000207,"""spatial""",,0,0,38.2546356816,140.835520093,197.50579834,"[-1.0, 0.0, 0.0, 0.0, 0.0, 0.0, 0.0, 0.0, 0.0]",0
1606295390418210905,,44199,,1606295390,429950229,"""spatial""",,0,0,38.2546356611,140.835520052,197.507339478,"[-1.0, 0.0, 0.0, 0.0, 0.0, 0.0, 0.0, 0.0, 0.0]",0
1606295390479294768,,44200,,1606295390,544120550,"""spatial""",,0,0,38.2546355585,140.835519927,197.507949829,"[-1.0, 0.0, 0.0, 0.0, 0.0, 0.0, 0.0, 0.0, 0.0]",0
1606295390580868368,,44201,,1606295390,629513584,"""spatial""",,0,0,38.2546355612,140.83551998,197.507461548,"[-1.0, 0.0, 0.0, 0.0, 0.0, 0.0, 0.0, 0.0, 0.0]",0
1606295390712849240,,44202,,1606295390,743465854,"""spatial""",,0,0,38.2546354689,140.835519957,197.506988525,"[-1.0, 0.0, 0.0, 0.0, 0.0, 0.0, 0.0, 0.0, 0.0]",0
1606295390756326766,,44203,,1606295390,829122901,"""spatial""",,0,0,38.2546356873,140.835520088,197.507583618,"[-1.0, 0.0, 0.0, 0.0, 0.0, 0.0, 0.0, 0.0, 0.0]",0
1606295391094075618,,44204,,1606295390,939340159,"""spatial""",,0,0,38.2546356495,140.835520142,197.506561279,"[-1.0, 0.0, 0.0, 0.0, 0.0, 0.0, 0.0, 0.0, 0.0]",0
1606295391240589185,,44205,,1606295391,29042256,"""spatial""",,0,0,38.2546358156,140.835520233,197.508651733,"[-1.0, 0.0, 0.0, 0.0, 0.0, 0.0, 0.0, 0.0, 0.0]",0
1606295391240602074,,44206,,1606295391,139466752,"""spatial""",,0,0,38.2546358205,140.835520285,197.508544922,"[-1.0, 0.0, 0.0, 0.0, 0.0, 0.0, 0.0, 0.0, 0.0]",0
1606295391444902587,,44207,,1606295391,243896685,"""spatial""",,0,0,38.254635838,140.835520266,197.507904053,"[-1.0, 0.0, 0.0, 0.0, 0.0, 0.0, 0.0, 0.0, 0.0]",0
1606295391444913281,,44208,,1606295391,334525032,"""spatial""",,0,0,38.2546358344,140.835520258,197.506851196,"[-1.0, 0.0, 0.0, 0.0, 0.0, 0.0, 0.0, 0.0, 0.0]",0
1606295391527611422,,44209,,1606295391,439021190,"""spatial""",,0,0,38.2546358253,140.83552028,197.506759644,"[-1.0, 0.0, 0.0, 0.0, 0.0, 0.0, 0.0, 0.0, 0.0]",0
1606295391527620344,,44210,,1606295391,534858912,"""spatial""",,0,0,38.2546358446,140.835520221,197.505477905,"[-1.0, 0.0, 0.0, 0.0, 0.0, 0.0, 0.0, 0.0, 0.0]",0
1606295391618195143,,44211,,1606295391,639221145,"""spatial""",,0,0,38.2546358505,140.835520224,197.505142212,"[-1.0, 0.0, 0.0, 0.0, 0.0, 0.0, 0.0, 0.0, 0.0]",0
1606295391692483309,,44212,,1606295391,734007079,"""spatial""",,0,0,38.2546358449,140.835520135,197.502731323,"[-1.0, 0.0, 0.0, 0.0, 0.0, 0.0, 0.0, 0.0, 0.0]",0
1606295391776000881,,44213,,1606295391,835072638,"""spatial""",,0,0,38.2546358658,140.83552011,197.502441406,"[-1.0, 0.0, 0.0, 0.0, 0.0, 0.0, 0.0, 0.0, 0.0]",0
1606295391849840362,,44214,,1606295391,929073297,"""spatial""",,0,0,38.2546358236,140.835520047,197.500442505,"[-1.0, 0.0, 0.0, 0.0, 0.0, 0.0, 0.0, 0.0, 0.0]",0
1606295391970394564,,44215,,1606295392,38697568,"""spatial""",,0,0,38.254635818,140.835519989,197.500579834,"[-1.0, 0.0, 0.0, 0.0, 0.0, 0.0, 0.0, 0.0, 0.0]",0
1606295392143442684,,44216,,1606295392,129556027,"""spatial""",,0,0,38.2546358126,140.83551998,197.49710083,"[-1.0, 0.0, 0.0, 0.0, 0.0, 0.0, 0.0, 0.0, 0.0]",0
1606295392207244694,,44217,,1606295392,234835410,"""spatial""",,0,0,38.2546358188,140.835519957,197.497070312,"[-1.0, 0.0, 0.0, 0.0, 0.0, 0.0, 0.0, 0.0, 0.0]",0
1606295392254430834,,44218,,1606295392,344226356,"""spatial""",,0,0,38.2546357937,140.835519961,197.495819092,"[-1.0, 0.0, 0.0, 0.0, 0.0, 0.0, 0.0, 0.0, 0.0]",0
1606295392341840456,,44219,,1606295392,429896565,"""spatial""",,0,0,38.2546357783,140.83551993,197.495788574,"[-1.0, 0.0, 0.0, 0.0, 0.0, 0.0, 0.0, 0.0, 0.0]",0
1606295392418137020,,44220,,1606295392,526718436,"""spatial""",,0,0,38.2546357919,140.83551991,197.493835449,"[-1.0, 0.0, 0.0, 0.0, 0.0, 0.0, 0.0, 0.0, 0.0]",0
1606295392521947023,,44221,,1606295392,630088707,"""spatial""",,0,0,38.2546358042,140.835519884,197.493484497,"[-1.0, 0.0, 0.0, 0.0, 0.0, 0.0, 0.0, 0.0, 0.0]",0
1606295392636600041,,44222,,1606295392,743947828,"""spatial""",,0,0,38.2546358138,140.835519907,197.492156982,"[-1.0, 0.0, 0.0, 0.0, 0.0, 0.0, 0.0, 0.0, 0.0]",0
1606295392721085834,,44223,,1606295392,829149487,"""spatial""",,0,0,38.2546358164,140.83551988,197.492294312,"[-1.0, 0.0, 0.0, 0.0, 0.0, 0.0, 0.0, 0.0, 0.0]",0
1606295392858877580,,44224,,1606295392,939286196,"""spatial""",,0,0,38.2546358798,140.835519876,197.490432739,"[-1.0, 0.0, 0.0, 0.0, 0.0, 0.0, 0.0, 0.0, 0.0]",0
1606295392921343443,,44225,,1606295393,29336255,"""spatial""",,0,0,38.254635896,140.835519861,197.490539551,"[-1.0, 0.0, 0.0, 0.0, 0.0, 0.0, 0.0, 0.0, 0.0]",0
1606295393031094519,,44226,,1606295393,139767251,"""spatial""",,0,0,38.2546359307,140.835519885,197.487838745,"[-1.0, 0.0, 0.0, 0.0, 0.0, 0.0, 0.0, 0.0, 0.0]",0
1606295393134443440,,44227,,1606295393,244166959,"""spatial""",,0,0,38.2546359531,140.835519906,197.486938477,"[-1.0, 0.0, 0.0, 0.0, 0.0, 0.0, 0.0, 0.0, 0.0]",0
1606295393226363944,,44228,,1606295393,334843543,"""spatial""",,0,0,38.2546359923,140.835519856,197.487854004,"[-1.0, 0.0, 0.0, 0.0, 0.0, 0.0, 0.0, 0.0, 0.0]",0
1606295393329302295,,44229,,1606295393,439244539,"""spatial""",,0,0,38.2546360197,140.835519881,197.487304688,"[-1.0, 0.0, 0.0, 0.0, 0.0, 0.0, 0.0, 0.0, 0.0]",0
1606295393427532129,,44230,,1606295393,535252785,"""spatial""",,0,0,38.2546360247,140.835519803,197.484130859,"[-1.0, 0.0, 0.0, 0.0, 0.0, 0.0, 0.0, 0.0, 0.0]",0
1606295393566224264,,44231,,1606295393,639530619,"""spatial""",,0,0,38.25463598,140.835519788,197.483520508,"[-1.0, 0.0, 0.0, 0.0, 0.0, 0.0, 0.0, 0.0, 0.0]",0
1606295393627287324,,44232,,1606295393,734326078,"""spatial""",,0,0,38.2546360231,140.835519779,197.480010986,"[-1.0, 0.0, 0.0, 0.0, 0.0, 0.0, 0.0, 0.0, 0.0]",0
1606295393730286562,,44233,,1606295393,838738886,"""spatial""",,0,0,38.2546360007,140.835519808,197.478210449,"[-1.0, 0.0, 0.0, 0.0, 0.0, 0.0, 0.0, 0.0, 0.0]",0
1606295393823049843,,44234,,1606295393,929676395,"""spatial""",,0,0,38.2546360631,140.835519848,197.475906372,"[-1.0, 0.0, 0.0, 0.0, 0.0, 0.0, 0.0, 0.0, 0.0]",0
1606295393929579761,,44235,,1606295394,38777579,"""spatial""",,0,0,38.2546360489,140.835519876,197.475189209,"[-1.0, 0.0, 0.0, 0.0, 0.0, 0.0, 0.0, 0.0, 0.0]",0
1606295394033737257,,44236,,1606295394,129751088,"""spatial""",,0,0,38.2546360864,140.835519926,197.473815918,"[-1.0, 0.0, 0.0, 0.0, 0.0, 0.0, 0.0, 0.0, 0.0]",0
1606295394130497451,,44237,,1606295394,234888209,"""spatial""",,0,0,38.2546361137,140.835519982,197.472702026,"[-1.0, 0.0, 0.0, 0.0, 0.0, 0.0, 0.0, 0.0, 0.0]",0
1606295394265434469,,44238,,1606295394,326565555,"""spatial""",,0,0,38.2546361146,140.835520025,197.471847534,"[-1.0, 0.0, 0.0, 0.0, 0.0, 0.0, 0.0, 0.0, 0.0]",0
1606295394324762878,,44239,,1606295394,430103714,"""spatial""",,0,0,38.2546361126,140.835520085,197.472259521,"[-1.0, 0.0, 0.0, 0.0, 0.0, 0.0, 0.0, 0.0, 0.0]",0
1606295394419586300,,44240,,1606295394,526981760,"""spatial""",,0,0,38.2546361203,140.835520127,197.47215271,"[-1.0, 0.0, 0.0, 0.0, 0.0, 0.0, 0.0, 0.0, 0.0]",0
1606295394526511868,,44241,,1606295394,634291956,"""spatial""",,0,0,38.2546361061,140.835520175,197.472564697,"[-1.0, 0.0, 0.0, 0.0, 0.0, 0.0, 0.0, 0.0, 0.0]",0
1606295394642751982,,44242,,1606295394,744005552,"""spatial""",,0,0,38.2546361239,140.835520227,197.472320557,"[-1.0, 0.0, 0.0, 0.0, 0.0, 0.0, 0.0, 0.0, 0.0]",0
1606295394722055769,,44243,,1606295394,829436699,"""spatial""",,0,0,38.2546360869,140.835520254,197.471908569,"[-1.0, 0.0, 0.0, 0.0, 0.0, 0.0, 0.0, 0.0, 0.0]",0
1606295394836162994,,44244,,1606295394,939631307,"""spatial""",,0,0,38.2546360972,140.83552029,197.471847534,"[-1.0, 0.0, 0.0, 0.0, 0.0, 0.0, 0.0, 0.0, 0.0]",0
1606295394923427428,,44245,,1606295395,29698928,"""spatial""",,0,0,38.25463607,140.835520301,197.471038818,"[-1.0, 0.0, 0.0, 0.0, 0.0, 0.0, 0.0, 0.0, 0.0]",0
1606295395033810475,,44246,,1606295395,139705049,"""spatial""",,0,0,38.254636067,140.835520316,197.470962524,"[-1.0, 0.0, 0.0, 0.0, 0.0, 0.0, 0.0, 0.0, 0.0]",0
1606295395134890994,,44247,,1606295395,244253045,"""spatial""",,0,0,38.2546360663,140.835520337,197.471435547,"[-1.0, 0.0, 0.0, 0.0, 0.0, 0.0, 0.0, 0.0, 0.0]",0
1606295395229765692,,44248,,1606295395,335096354,"""spatial""",,0,0,38.2546360651,140.835520327,197.470916748,"[-1.0, 0.0, 0.0, 0.0, 0.0, 0.0, 0.0, 0.0, 0.0]",0
1606295395330441588,,44249,,1606295395,440071338,"""spatial""",,0,0,38.2546360873,140.83552043,197.471725464,"[-1.0, 0.0, 0.0, 0.0, 0.0, 0.0, 0.0, 0.0, 0.0]",0
1606295395427479421,,44250,,1606295395,535436372,"""spatial""",,0,0,38.2546360985,140.835520554,197.476409912,"[-1.0, 0.0, 0.0, 0.0, 0.0, 0.0, 0.0, 0.0, 0.0]",0
1606295395535685877,,44251,,1606295395,643707480,"""spatial""",,0,0,38.2546360469,140.835520589,197.480926514,"[-1.0, 0.0, 0.0, 0.0, 0.0, 0.0, 0.0, 0.0, 0.0]",0
1606295395626988264,,44252,,1606295395,734525577,"""spatial""",,0,0,38.2546360413,140.835520614,197.483428955,"[-1.0, 0.0, 0.0, 0.0, 0.0, 0.0, 0.0, 0.0, 0.0]",0
1606295395730017738,,44253,,1606295395,838863623,"""spatial""",,0,0,38.2546359871,140.835520652,197.482040405,"[-1.0, 0.0, 0.0, 0.0, 0.0, 0.0, 0.0, 0.0, 0.0]",0
1606295395822187989,,44254,,1606295395,930187644,"""spatial""",,0,0,38.2546359491,140.8355207,197.481918335,"[-1.0, 0.0, 0.0, 0.0, 0.0, 0.0, 0.0, 0.0, 0.0]",0
1606295395929315980,,44255,,1606295396,39017715,"""spatial""",,0,0,38.2546359656,140.835520796,197.486557007,"[-1.0, 0.0, 0.0, 0.0, 0.0, 0.0, 0.0, 0.0, 0.0]",0
1606295396022282037,,44256,,1606295396,129844899,"""spatial""",,0,0,38.254635953,140.835520902,197.487442017,"[-1.0, 0.0, 0.0, 0.0, 0.0, 0.0, 0.0, 0.0, 0.0]",0
1606295396125304551,,44257,,1606295396,234760945,"""spatial""",,0,0,38.254635989,140.835520906,197.490921021,"[-1.0, 0.0, 0.0, 0.0, 0.0, 0.0, 0.0, 0.0, 0.0]",0
1606295396217512936,,44258,,1606295396,326993229,"""spatial""",,0,0,38.2546360254,140.835520939,197.49357605,"[-1.0, 0.0, 0.0, 0.0, 0.0, 0.0, 0.0, 0.0, 0.0]",0
1606295396329909653,,44259,,1606295396,434343837,"""spatial""",,0,0,38.254635861,140.835521087,197.498580933,"[-1.0, 0.0, 0.0, 0.0, 0.0, 0.0, 0.0, 0.0, 0.0]",0
1606295396419702591,,44260,,1606295396,529399784,"""spatial""",,0,0,38.2546357925,140.835521191,197.499221802,"[-1.0, 0.0, 0.0, 0.0, 0.0, 0.0, 0.0, 0.0, 0.0]",0
1606295396527138768,,44261,,1606295396,634748730,"""spatial""",,0,0,38.2546356178,140.835521293,197.502182007,"[-1.0, 0.0, 0.0, 0.0, 0.0, 0.0, 0.0, 0.0, 0.0]",0
1606295396635296731,,44262,,1606295396,744267376,"""spatial""",,0,0,38.2546355143,140.835521386,197.503158569,"[-1.0, 0.0, 0.0, 0.0, 0.0, 0.0, 0.0, 0.0, 0.0]",0
1606295396721363832,,44263,,1606295396,829832447,"""spatial""",,0,0,38.2546353598,140.835521454,197.507247925,"[-1.0, 0.0, 0.0, 0.0, 0.0, 0.0, 0.0, 0.0, 0.0]",0
1606295396831540451,,44264,,1606295396,940073081,"""spatial""",,0,0,38.2546352355,140.835521522,197.507919312,"[-1.0, 0.0, 0.0, 0.0, 0.0, 0.0, 0.0, 0.0, 0.0]",0
1606295396922204980,,44265,,1606295397,29589827,"""spatial""",,0,0,38.2546351785,140.835521617,197.512451172,"[-1.0, 0.0, 0.0, 0.0, 0.0, 0.0, 0.0, 0.0, 0.0]",0
1606295397033529605,,44266,,1606295397,139991035,"""spatial""",,0,0,38.2546350668,140.835521674,197.51411438,"[-1.0, 0.0, 0.0, 0.0, 0.0, 0.0, 0.0, 0.0, 0.0]",0
1606295397121013728,,44267,,1606295397,228335495,"""spatial""",,0,0,38.2546350162,140.835521712,197.516464233,"[-1.0, 0.0, 0.0, 0.0, 0.0, 0.0, 0.0, 0.0, 0.0]",0
1606295397226683261,,44268,,1606295397,335343640,"""spatial""",,0,0,38.2546349214,140.835521756,197.517349243,"[-1.0, 0.0, 0.0, 0.0, 0.0, 0.0, 0.0, 0.0, 0.0]",0
1606295397335635602,,44269,,1606295397,443795674,"""spatial""",,0,0,38.2546348883,140.835521705,197.51914978,"[-1.0, 0.0, 0.0, 0.0, 0.0, 0.0, 0.0, 0.0, 0.0]",0
1606295397432161388,,44270,,1606295397,539166208,"""spatial""",,0,0,38.2546348118,140.83552172,197.521072388,"[-1.0, 0.0, 0.0, 0.0, 0.0, 0.0, 0.0, 0.0, 0.0]",0
1606295397534673309,,44271,,1606295397,644019116,"""spatial""",,0,0,38.2546348169,140.835521674,197.522445679,"[-1.0, 0.0, 0.0, 0.0, 0.0, 0.0, 0.0, 0.0, 0.0]",0
1606295397625726353,,44272,,1606295397,735096150,"""spatial""",,0,0,38.2546347785,140.835521715,197.522720337,"[-1.0, 0.0, 0.0, 0.0, 0.0, 0.0, 0.0, 0.0, 0.0]",0
1606295397729172778,,44273,,1606295397,839065659,"""spatial""",,0,0,38.254634775,140.835521622,197.523742676,"[-1.0, 0.0, 0.0, 0.0, 0.0, 0.0, 0.0, 0.0, 0.0]",0
1606295397821161232,,44274,,1606295397,930270705,"""spatial""",,0,0,38.2546347586,140.83552165,197.524398804,"[-1.0, 0.0, 0.0, 0.0, 0.0, 0.0, 0.0, 0.0, 0.0]",0
1606295397929582243,,44275,,1606295398,39241576,"""spatial""",,0,0,38.25463476,140.83552165,197.524749756,"[-1.0, 0.0, 0.0, 0.0, 0.0, 0.0, 0.0, 0.0, 0.0]",0
1606295398048936737,,44276,,1606295398,130296548,"""spatial""",,0,0,38.2546347509,140.835521689,197.525650024,"[-1.0, 0.0, 0.0, 0.0, 0.0, 0.0, 0.0, 0.0, 0.0]",0
1606295398129165231,,44277,,1606295398,235201881,"""spatial""",,0,0,38.2546347497,140.835521688,197.526657104,"[-1.0, 0.0, 0.0, 0.0, 0.0, 0.0, 0.0, 0.0, 0.0]",0
1606295398228179157,,44278,,1606295398,329130540,"""spatial""",,0,0,38.2546347846,140.835521691,197.529052734,"[-1.0, 0.0, 0.0, 0.0, 0.0, 0.0, 0.0, 0.0, 0.0]",0
1606295398330404370,,44279,,1606295398,434568336,"""spatial""",,0,0,38.254634786,140.835521708,197.530197144,"[-1.0, 0.0, 0.0, 0.0, 0.0, 0.0, 0.0, 0.0, 0.0]",0
1606295398429802492,,44280,,1606295398,529908707,"""spatial""",,0,0,38.2546348248,140.835521774,197.531768799,"[-1.0, 0.0, 0.0, 0.0, 0.0, 0.0, 0.0, 0.0, 0.0]",0
1606295398534640872,,44281,,1606295398,635073191,"""spatial""",,0,0,38.2546348435,140.835521802,197.532821655,"[-1.0, 0.0, 0.0, 0.0, 0.0, 0.0, 0.0, 0.0, 0.0]",0
1606295398637118409,,44282,,1606295398,744390724,"""spatial""",,0,0,38.2546348464,140.835521872,197.533889771,"[-1.0, 0.0, 0.0, 0.0, 0.0, 0.0, 0.0, 0.0, 0.0]",0
1606295398751979786,,44283,,1606295398,829947408,"""spatial""",,0,0,38.2546348619,140.835521901,197.534454346,"[-1.0, 0.0, 0.0, 0.0, 0.0, 0.0, 0.0, 0.0, 0.0]",0
1606295398840510316,,44284,,1606295398,940365279,"""spatial""",,0,0,38.2546348495,140.835521913,197.534606934,"[-1.0, 0.0, 0.0, 0.0, 0.0, 0.0, 0.0, 0.0, 0.0]",0
1606295398921935461,,44285,,1606295399,30415401,"""spatial""",,0,0,38.2546348505,140.835521925,197.535064697,"[-1.0, 0.0, 0.0, 0.0, 0.0, 0.0, 0.0, 0.0, 0.0]",0
1606295399034785738,,44286,,1606295399,143990046,"""spatial""",,0,0,38.2546348142,140.835521913,197.53527832,"[-1.0, 0.0, 0.0, 0.0, 0.0, 0.0, 0.0, 0.0, 0.0]",0
1606295399120910749,,44287,,1606295399,229099856,"""spatial""",,0,0,38.2546347812,140.8355219,197.535842896,"[-1.0, 0.0, 0.0, 0.0, 0.0, 0.0, 0.0, 0.0, 0.0]",0
1606295399231375756,,44288,,1606295399,339963426,"""spatial""",,0,0,38.2546347827,140.835521899,197.535064697,"[-1.0, 0.0, 0.0, 0.0, 0.0, 0.0, 0.0, 0.0, 0.0]",0
1606295399335571622,,44289,,1606295399,444133610,"""spatial""",,0,0,38.2546347685,140.835521899,197.535736084,"[-1.0, 0.0, 0.0, 0.0, 0.0, 0.0, 0.0, 0.0, 0.0]",0
1606295399463190135,,44290,,1606295399,539944306,"""spatial""",,0,0,38.2546347553,140.835521915,197.537216187,"[-1.0, 0.0, 0.0, 0.0, 0.0, 0.0, 0.0, 0.0, 0.0]",0
1606295399534289881,,44291,,1606295399,644312265,"""spatial""",,0,0,38.2546346634,140.835521875,197.533660889,"[-1.0, 0.0, 0.0, 0.0, 0.0, 0.0, 0.0, 0.0, 0.0]",0
1606295399628895449,,44292,,1606295399,735007399,"""spatial""",,0,0,38.2546346079,140.835521879,197.5337677,"[-1.0, 0.0, 0.0, 0.0, 0.0, 0.0, 0.0, 0.0, 0.0]",0
1606295399730370094,,44293,,1606295399,839320145,"""spatial""",,0,0,38.2546346453,140.835521884,197.53414917,"[-1.0, 0.0, 0.0, 0.0, 0.0, 0.0, 0.0, 0.0, 0.0]",0
1606295399821009107,,44294,,1606295399,930353116,"""spatial""",,0,0,38.2546346365,140.83552191,197.535018921,"[-1.0, 0.0, 0.0, 0.0, 0.0, 0.0, 0.0, 0.0, 0.0]",0
1606295399930768690,,44295,,1606295400,39929975,"""spatial""",,0,0,38.2546345978,140.835521864,197.533630371,"[-1.0, 0.0, 0.0, 0.0, 0.0, 0.0, 0.0, 0.0, 0.0]",0
1606295400025193137,,44296,,1606295400,134930371,"""spatial""",,0,0,38.2546345843,140.835521871,197.534179688,"[-1.0, 0.0, 0.0, 0.0, 0.0, 0.0, 0.0, 0.0, 0.0]",0
1606295400173576447,,44297,,1606295400,235212717,"""spatial""",,0,0,38.2546345723,140.835521886,197.534683228,"[-1.0, 0.0, 0.0, 0.0, 0.0, 0.0, 0.0, 0.0, 0.0]",0
1606295400249253609,,44298,,1606295400,329367001,"""spatial""",,0,0,38.2546345709,140.835521904,197.534591675,"[-1.0, 0.0, 0.0, 0.0, 0.0, 0.0, 0.0, 0.0, 0.0]",0
1606295400327134484,,44299,,1606295400,434691922,"""spatial""",,0,0,38.2546345633,140.835521943,197.534317017,"[-1.0, 0.0, 0.0, 0.0, 0.0, 0.0, 0.0, 0.0, 0.0]",0
1606295400429773410,,44300,,1606295400,530538656,"""spatial""",,0,0,38.254634559,140.835521964,197.53326416,"[-1.0, 0.0, 0.0, 0.0, 0.0, 0.0, 0.0, 0.0, 0.0]",0
1606295400533827719,,44301,,1606295400,634886790,"""spatial""",,0,0,38.2546345454,140.835521949,197.534820557,"[-1.0, 0.0, 0.0, 0.0, 0.0, 0.0, 0.0, 0.0, 0.0]",0
1606295400646598855,,44302,,1606295400,744711198,"""spatial""",,0,0,38.2546345519,140.835521963,197.534484863,"[-1.0, 0.0, 0.0, 0.0, 0.0, 0.0, 0.0, 0.0, 0.0]",0
1606295400722564105,,44303,,1606295400,830252070,"""spatial""",,0,0,38.2546346351,140.835522039,197.532241821,"[-1.0, 0.0, 0.0, 0.0, 0.0, 0.0, 0.0, 0.0, 0.0]",0
1606295400836361008,,44304,,1606295400,944249415,"""spatial""",,0,0,38.254634703,140.835522067,197.533691406,"[-1.0, 0.0, 0.0, 0.0, 0.0, 0.0, 0.0, 0.0, 0.0]",0
1606295400930475939,,44305,,1606295401,30218837,"""spatial""",,0,0,38.2546347003,140.835522089,197.535049438,"[-1.0, 0.0, 0.0, 0.0, 0.0, 0.0, 0.0, 0.0, 0.0]",0
1606295401034554448,,44306,,1606295401,144080558,"""spatial""",,0,0,38.2546347333,140.835522099,197.535430908,"[-1.0, 0.0, 0.0, 0.0, 0.0, 0.0, 0.0, 0.0, 0.0]",0
1606295401165348800,,44307,,1606295401,229545704,"""spatial""",,0,0,38.2546347822,140.835522065,197.533248901,"[-1.0, 0.0, 0.0, 0.0, 0.0, 0.0, 0.0, 0.0, 0.0]",0
1606295401249870006,,44308,,1606295401,339641213,"""spatial""",,0,0,38.2546347786,140.835522054,197.532836914,"[-1.0, 0.0, 0.0, 0.0, 0.0, 0.0, 0.0, 0.0, 0.0]",0
1606295401334729598,,44309,,1606295401,444411621,"""spatial""",,0,0,38.254634809,140.835522041,197.529541016,"[-1.0, 0.0, 0.0, 0.0, 0.0, 0.0, 0.0, 0.0, 0.0]",0
1606295401459352079,,44310,,1606295401,539911468,"""spatial""",,0,0,38.2546347994,140.835522025,197.528884888,"[-1.0, 0.0, 0.0, 0.0, 0.0, 0.0, 0.0, 0.0, 0.0]",0
1606295401534844951,,44311,,1606295401,644510026,"""spatial""",,0,0,38.2546348999,140.835522004,197.529327393,"[-1.0, 0.0, 0.0, 0.0, 0.0, 0.0, 0.0, 0.0, 0.0]",0
1606295401628153387,,44312,,1606295401,735273510,"""spatial""",,0,0,38.2546349089,140.835521994,197.529052734,"[-1.0, 0.0, 0.0, 0.0, 0.0, 0.0, 0.0, 0.0, 0.0]",0
1606295401729324726,,44313,,1606295401,839844469,"""spatial""",,0,0,38.254634915,140.835521964,197.527923584,"[-1.0, 0.0, 0.0, 0.0, 0.0, 0.0, 0.0, 0.0, 0.0]",0
1606295401844653291,,44314,,1606295401,934515215,"""spatial""",,0,0,38.254634911,140.835521958,197.527679443,"[-1.0, 0.0, 0.0, 0.0, 0.0, 0.0, 0.0, 0.0, 0.0]",0
1606295401935112686,,44315,,1606295402,39734949,"""spatial""",,0,0,38.254634947,140.835521923,197.526535034,"[-1.0, 0.0, 0.0, 0.0, 0.0, 0.0, 0.0, 0.0, 0.0]",0
1606295402028030338,,44316,,1606295402,134880570,"""spatial""",,0,0,38.2546349519,140.835521915,197.526443481,"[-1.0, 0.0, 0.0, 0.0, 0.0, 0.0, 0.0, 0.0, 0.0]",0
1606295402129402799,,44317,,1606295402,239179678,"""spatial""",,0,0,38.254634918,140.835521873,197.526351929,"[-1.0, 0.0, 0.0, 0.0, 0.0, 0.0, 0.0, 0.0, 0.0]",0
1606295402221343250,,44318,,1606295402,329899712,"""spatial""",,0,0,38.2546348792,140.835521827,197.5262146,"[-1.0, 0.0, 0.0, 0.0, 0.0, 0.0, 0.0, 0.0, 0.0]",0
1606295402326751275,,44319,,1606295402,435307158,"""spatial""",,0,0,38.254634876,140.835521808,197.526611328,"[-1.0, 0.0, 0.0, 0.0, 0.0, 0.0, 0.0, 0.0, 0.0]",0
1606295402427461148,,44320,,1606295402,530128755,"""spatial""",,0,0,38.2546348427,140.835521789,197.528442383,"[-1.0, 0.0, 0.0, 0.0, 0.0, 0.0, 0.0, 0.0, 0.0]",0
1606295402528426523,,44321,,1606295402,635450876,"""spatial""",,0,0,38.2546348449,140.835521771,197.530212402,"[-1.0, 0.0, 0.0, 0.0, 0.0, 0.0, 0.0, 0.0, 0.0]",0
1606295402631274891,,44322,,1606295402,727537185,"""spatial""",,0,0,38.2546348408,140.835521765,197.529525757,"[-1.0, 0.0, 0.0, 0.0, 0.0, 0.0, 0.0, 0.0, 0.0]",0
1606295402732614495,,44323,,1606295402,830421618,"""spatial""",,0,0,38.2546348634,140.835521774,197.530014038,"[-1.0, 0.0, 0.0, 0.0, 0.0, 0.0, 0.0, 0.0, 0.0]",0
1606295402841732231,,44324,,1606295402,944220264,"""spatial""",,0,0,38.2546348075,140.83552174,197.528961182,"[-1.0, 0.0, 0.0, 0.0, 0.0, 0.0, 0.0, 0.0, 0.0]",0
1606295402938250939,,44325,,1606295403,35109486,"""spatial""",,0,0,38.2546347938,140.835521717,197.528244019,"[-1.0, 0.0, 0.0, 0.0, 0.0, 0.0, 0.0, 0.0, 0.0]",0
1606295403044925520,,44326,,1606295403,144647906,"""spatial""",,0,0,38.2546347273,140.835521713,197.526367188,"[-1.0, 0.0, 0.0, 0.0, 0.0, 0.0, 0.0, 0.0, 0.0]",0
1606295403195937898,,44327,,1606295403,230043203,"""spatial""",,0,0,38.2546346743,140.835521711,197.52482605,"[-1.0, 0.0, 0.0, 0.0, 0.0, 0.0, 0.0, 0.0, 0.0]",0
1606295403254341561,,44328,,1606295403,339614749,"""spatial""",,0,0,38.2546347344,140.835521688,197.526824951,"[-1.0, 0.0, 0.0, 0.0, 0.0, 0.0, 0.0, 0.0, 0.0]",0
1606295403340149182,,44329,,1606295403,444605895,"""spatial""",,0,0,38.2546347133,140.835521697,197.524459839,"[-1.0, 0.0, 0.0, 0.0, 0.0, 0.0, 0.0, 0.0, 0.0]",0
1606295403432324421,,44330,,1606295403,540190916,"""spatial""",,0,0,38.2546347551,140.835521739,197.527786255,"[-1.0, 0.0, 0.0, 0.0, 0.0, 0.0, 0.0, 0.0, 0.0]",0
1606295403536712675,,44331,,1606295403,644795037,"""spatial""",,0,0,38.2546347622,140.83552177,197.527587891,"[-1.0, 0.0, 0.0, 0.0, 0.0, 0.0, 0.0, 0.0, 0.0]",0
1606295403626573943,,44332,,1606295403,735785859,"""spatial""",,0,0,38.2546346667,140.835521626,197.527023315,"[-1.0, 0.0, 0.0, 0.0, 0.0, 0.0, 0.0, 0.0, 0.0]",0
1606295403730766987,,44333,,1606295403,839886855,"""spatial""",,0,0,38.2546346189,140.835521526,197.528244019,"[-1.0, 0.0, 0.0, 0.0, 0.0, 0.0, 0.0, 0.0, 0.0]",0
1606295403825782317,,44334,,1606295403,934893576,"""spatial""",,0,0,38.2546345981,140.835521476,197.528198242,"[-1.0, 0.0, 0.0, 0.0, 0.0, 0.0, 0.0, 0.0, 0.0]",0
1606295403934427982,,44335,,1606295404,44070047,"""spatial""",,0,0,38.2546345659,140.835521477,197.528656006,"[-1.0, 0.0, 0.0, 0.0, 0.0, 0.0, 0.0, 0.0, 0.0]",0
1606295404025113206,,44336,,1606295404,134981294,"""spatial""",,0,0,38.2546345347,140.835521455,197.52796936,"[-1.0, 0.0, 0.0, 0.0, 0.0, 0.0, 0.0, 0.0, 0.0]",0
1606295404129479443,,44337,,1606295404,239281740,"""spatial""",,0,0,38.2546345702,140.835521487,197.530426025,"[-1.0, 0.0, 0.0, 0.0, 0.0, 0.0, 0.0, 0.0, 0.0]",0
1606295404221207161,,44338,,1606295404,329861349,"""spatial""",,0,0,38.2546345666,140.835521506,197.531112671,"[-1.0, 0.0, 0.0, 0.0, 0.0, 0.0, 0.0, 0.0, 0.0]",0
1606295404327142067,,44339,,1606295404,435344220,"""spatial""",,0,0,38.2546345248,140.835521465,197.531661987,"[-1.0, 0.0, 0.0, 0.0, 0.0, 0.0, 0.0, 0.0, 0.0]",0
1606295404419843693,,44340,,1606295404,530084279,"""spatial""",,0,0,38.2546345159,140.835521477,197.532470703,"[-1.0, 0.0, 0.0, 0.0, 0.0, 0.0, 0.0, 0.0, 0.0]",0
1606295404524753555,,44341,,1606295404,635049050,"""spatial""",,0,0,38.2546344815,140.835521403,197.532348633,"[-1.0, 0.0, 0.0, 0.0, 0.0, 0.0, 0.0, 0.0, 0.0]",0
1606295404621919126,,44342,,1606295404,727317358,"""spatial""",,0,0,38.2546344768,140.835521386,197.533081055,"[-1.0, 0.0, 0.0, 0.0, 0.0, 0.0, 0.0, 0.0, 0.0]",0
1606295404726222702,,44343,,1606295404,834764017,"""spatial""",,0,0,38.2546344783,140.835521372,197.533966064,"[-1.0, 0.0, 0.0, 0.0, 0.0, 0.0, 0.0, 0.0, 0.0]",0
1606295404849171712,,44344,,1606295404,944511238,"""spatial""",,0,0,38.2546344684,140.835521347,197.533721924,"[-1.0, 0.0, 0.0, 0.0, 0.0, 0.0, 0.0, 0.0, 0.0]",0
1606295404925917853,,44345,,1606295405,35118034,"""spatial""",,0,0,38.2546344426,140.835521362,197.532699585,"[-1.0, 0.0, 0.0, 0.0, 0.0, 0.0, 0.0, 0.0, 0.0]",0
1606295405035190404,,44346,,1606295405,144777880,"""spatial""",,0,0,38.2546344494,140.835521384,197.533294678,"[-1.0, 0.0, 0.0, 0.0, 0.0, 0.0, 0.0, 0.0, 0.0]",0
1606295405124474817,,44347,,1606295405,229983252,"""spatial""",,0,0,38.2546344336,140.8355214,197.533966064,"[-1.0, 0.0, 0.0, 0.0, 0.0, 0.0, 0.0, 0.0, 0.0]",0
1606295405229925934,,44348,,1606295405,339884685,"""spatial""",,0,0,38.2546344279,140.835521318,197.535522461,"[-1.0, 0.0, 0.0, 0.0, 0.0, 0.0, 0.0, 0.0, 0.0]",0
1606295405335561779,,44349,,1606295405,444871981,"""spatial""",,0,0,38.2546343939,140.835521306,197.534881592,"[-1.0, 0.0, 0.0, 0.0, 0.0, 0.0, 0.0, 0.0, 0.0]",0
1606295405430987958,,44350,,1606295405,541436752,"""spatial""",,0,0,38.254634409,140.835521307,197.53527832,"[-1.0, 0.0, 0.0, 0.0, 0.0, 0.0, 0.0, 0.0, 0.0]",0
1606295405519555000,,44351,,1606295405,629406474,"""spatial""",,0,0,38.2546344087,140.835521319,197.535919189,"[-1.0, 0.0, 0.0, 0.0, 0.0, 0.0, 0.0, 0.0, 0.0]",0
1606295405626803666,,44352,,1606295405,735776895,"""spatial""",,0,0,38.2546344637,140.835521244,197.53565979,"[-1.0, 0.0, 0.0, 0.0, 0.0, 0.0, 0.0, 0.0, 0.0]",0
1606295405733540262,,44353,,1606295405,844136791,"""spatial""",,0,0,38.2546344718,140.835521238,197.534912109,"[-1.0, 0.0, 0.0, 0.0, 0.0, 0.0, 0.0, 0.0, 0.0]",0
1606295405825510983,,44354,,1606295405,934979062,"""spatial""",,0,0,38.2546345161,140.835521263,197.535461426,"[-1.0, 0.0, 0.0, 0.0, 0.0, 0.0, 0.0, 0.0, 0.0]",0
1606295405946340750,,44355,,1606295406,44341846,"""spatial""",,0,0,38.254634531,140.835521251,197.535751343,"[-1.0, 0.0, 0.0, 0.0, 0.0, 0.0, 0.0, 0.0, 0.0]",0
1606295406025748456,,44356,,1606295406,135029030,"""spatial""",,0,0,38.2546345516,140.835521289,197.537384033,"[-1.0, 0.0, 0.0, 0.0, 0.0, 0.0, 0.0, 0.0, 0.0]",0
1606295406129019964,,44357,,1606295406,239460863,"""spatial""",,0,0,38.2546345551,140.835521285,197.538314819,"[-1.0, 0.0, 0.0, 0.0, 0.0, 0.0, 0.0, 0.0, 0.0]",0
1606295406221218964,,44358,,1606295406,329979585,"""spatial""",,0,0,38.2546345434,140.835521323,197.538742065,"[-1.0, 0.0, 0.0, 0.0, 0.0, 0.0, 0.0, 0.0, 0.0]",0
1606295406325072139,,44359,,1606295406,435112093,"""spatial""",,0,0,38.2546345179,140.835521331,197.537948608,"[-1.0, 0.0, 0.0, 0.0, 0.0, 0.0, 0.0, 0.0, 0.0]",0
1606295406426358450,,44360,,1606295406,530949352,"""spatial""",,0,0,38.2546346004,140.835521447,197.538070679,"[-1.0, 0.0, 0.0, 0.0, 0.0, 0.0, 0.0, 0.0, 0.0]",0
1606295406529596570,,44361,,1606295406,636148348,"""spatial""",,0,0,38.2546346009,140.835521484,197.538208008,"[-1.0, 0.0, 0.0, 0.0, 0.0, 0.0, 0.0, 0.0, 0.0]",0
1606295406624540020,,44362,,1606295406,729969720,"""spatial""",,0,0,38.2546347521,140.835521548,197.538726807,"[-1.0, 0.0, 0.0, 0.0, 0.0, 0.0, 0.0, 0.0, 0.0]",0
1606295406735161799,,44363,,1606295406,835347353,"""spatial""",,0,0,38.2546347956,140.835521577,197.539123535,"[-1.0, 0.0, 0.0, 0.0, 0.0, 0.0, 0.0, 0.0, 0.0]",0
1606295406861261963,,44364,,1606295406,944831174,"""spatial""",,0,0,38.2546348528,140.835521609,197.537719727,"[-1.0, 0.0, 0.0, 0.0, 0.0, 0.0, 0.0, 0.0, 0.0]",0
1606295407004852054,,44365,,1606295407,35252958,"""spatial""",,0,0,38.2546348994,140.835521645,197.53817749,"[-1.0, 0.0, 0.0, 0.0, 0.0, 0.0, 0.0, 0.0, 0.0]",0
1606295407134893997,,44366,,1606295407,144773129,"""spatial""",,0,0,38.2546349685,140.835521645,197.53843689,"[-1.0, 0.0, 0.0, 0.0, 0.0, 0.0, 0.0, 0.0, 0.0]",0
1606295407187594885,,44367,,1606295407,230572875,"""spatial""",,0,0,38.2546350272,140.835521664,197.538894653,"[-1.0, 0.0, 0.0, 0.0, 0.0, 0.0, 0.0, 0.0, 0.0]",0
1606295407262161393,,44368,,1606295407,340331709,"""spatial""",,0,0,38.2546350353,140.835521633,197.53742981,"[-1.0, 0.0, 0.0, 0.0, 0.0, 0.0, 0.0, 0.0, 0.0]",0
1606295407320982966,,44369,,1606295407,429007955,"""spatial""",,0,0,38.2546350754,140.835521637,197.537216187,"[-1.0, 0.0, 0.0, 0.0, 0.0, 0.0, 0.0, 0.0, 0.0]",0
1606295407436095983,,44370,,1606295407,544258889,"""spatial""",,0,0,38.2546350926,140.835521607,197.537063599,"[-1.0, 0.0, 0.0, 0.0, 0.0, 0.0, 0.0, 0.0, 0.0]",0
1606295407520039724,,44371,,1606295407,629218973,"""spatial""",,0,0,38.2546351284,140.835521603,197.537490845,"[-1.0, 0.0, 0.0, 0.0, 0.0, 0.0, 0.0, 0.0, 0.0]",0
1606295407630429900,,44372,,1606295407,739782581,"""spatial""",,0,0,38.2546351405,140.835521563,197.537368774,"[-1.0, 0.0, 0.0, 0.0, 0.0, 0.0, 0.0, 0.0, 0.0]",0
1606295407736305059,,44373,,1606295407,844580727,"""spatial""",,0,0,38.2546351622,140.835521557,197.538314819,"[-1.0, 0.0, 0.0, 0.0, 0.0, 0.0, 0.0, 0.0, 0.0]",0
1606295407827507305,,44374,,1606295407,935605974,"""spatial""",,0,0,38.2546351539,140.83552153,197.53817749,"[-1.0, 0.0, 0.0, 0.0, 0.0, 0.0, 0.0, 0.0, 0.0]",0
1606295407935120120,,44375,,1606295408,45112807,"""spatial""",,0,0,38.2546351584,140.835521513,197.537750244,"[-1.0, 0.0, 0.0, 0.0, 0.0, 0.0, 0.0, 0.0, 0.0]",0
1606295408026590860,,44376,,1606295408,135612166,"""spatial""",,0,0,38.2546351513,140.835521497,197.537521362,"[-1.0, 0.0, 0.0, 0.0, 0.0, 0.0, 0.0, 0.0, 0.0]",0
1606295408130037380,,44377,,1606295408,240018749,"""spatial""",,0,0,38.2546351479,140.835521477,197.537368774,"[-1.0, 0.0, 0.0, 0.0, 0.0, 0.0, 0.0, 0.0, 0.0]",0
1606295408221121805,,44378,,1606295408,330218171,"""spatial""",,0,0,38.2546351477,140.835521477,197.536727905,"[-1.0, 0.0, 0.0, 0.0, 0.0, 0.0, 0.0, 0.0, 0.0]",0
1606295408373762605,,44379,,1606295408,435524892,"""spatial""",,0,0,38.2546351453,140.83552147,197.536239624,"[-1.0, 0.0, 0.0, 0.0, 0.0, 0.0, 0.0, 0.0, 0.0]",0
1606295408430424158,,44380,,1606295408,534629213,"""spatial""",,0,0,38.2546351345,140.835521447,197.535614014,"[-1.0, 0.0, 0.0, 0.0, 0.0, 0.0, 0.0, 0.0, 0.0]",0
1606295408525187055,,44381,,1606295408,635692147,"""spatial""",,0,0,38.2546351336,140.835521439,197.534866333,"[-1.0, 0.0, 0.0, 0.0, 0.0, 0.0, 0.0, 0.0, 0.0]",0
1606295408621069197,,44382,,1606295408,730202931,"""spatial""",,0,0,38.2546351177,140.835521421,197.535842896,"[-1.0, 0.0, 0.0, 0.0, 0.0, 0.0, 0.0, 0.0, 0.0]",0
1606295408726088358,,44383,,1606295408,835143752,"""spatial""",,0,0,38.254635122,140.835521409,197.536590576,"[-1.0, 0.0, 0.0, 0.0, 0.0, 0.0, 0.0, 0.0, 0.0]",0
1606295408846896389,,44384,,1606295408,944849623,"""spatial""",,0,0,38.2546351105,140.835521389,197.537780762,"[-1.0, 0.0, 0.0, 0.0, 0.0, 0.0, 0.0, 0.0, 0.0]",0
1606295409009436168,,44385,,1606295409,35536557,"""spatial""",,0,0,38.2546351135,140.835521377,197.53793335,"[-1.0, 0.0, 0.0, 0.0, 0.0, 0.0, 0.0, 0.0, 0.0]",0
1606295409087115096,,44386,,1606295409,145646852,"""spatial""",,0,0,38.2546351165,140.835521337,197.537155151,"[-1.0, 0.0, 0.0, 0.0, 0.0, 0.0, 0.0, 0.0, 0.0]",0
1606295409160658733,,44387,,1606295409,230659462,"""spatial""",,0,0,38.2546351188,140.835521323,197.536712646,"[-1.0, 0.0, 0.0, 0.0, 0.0, 0.0, 0.0, 0.0, 0.0]",0
1606295409240848773,,44388,,1606295409,344243932,"""spatial""",,0,0,38.2546351237,140.835521288,197.536254883,"[-1.0, 0.0, 0.0, 0.0, 0.0, 0.0, 0.0, 0.0, 0.0]",0
1606295409320253967,,44389,,1606295409,428929004,"""spatial""",,0,0,38.2546351279,140.835521271,197.535842896,"[-1.0, 0.0, 0.0, 0.0, 0.0, 0.0, 0.0, 0.0, 0.0]",0
1606295409437550593,,44390,,1606295409,544494287,"""spatial""",,0,0,38.2546351368,140.835521256,197.535049438,"[-1.0, 0.0, 0.0, 0.0, 0.0, 0.0, 0.0, 0.0, 0.0]",0
1606295409519888695,,44391,,1606295409,629582496,"""spatial""",,0,0,38.2546351417,140.835521239,197.534591675,"[-1.0, 0.0, 0.0, 0.0, 0.0, 0.0, 0.0, 0.0, 0.0]",0
1606295409635736351,,44392,,1606295409,739825355,"""spatial""",,0,0,38.2546351342,140.835521227,197.533706665,"[-1.0, 0.0, 0.0, 0.0, 0.0, 0.0, 0.0, 0.0, 0.0]",0
1606295409737028326,,44393,,1606295409,844813851,"""spatial""",,0,0,38.2546351335,140.835521221,197.533218384,"[-1.0, 0.0, 0.0, 0.0, 0.0, 0.0, 0.0, 0.0, 0.0]",0
1606295409836025523,,44394,,1606295409,935503760,"""spatial""",,0,0,38.2546351409,140.835521186,197.532211304,"[-1.0, 0.0, 0.0, 0.0, 0.0, 0.0, 0.0, 0.0, 0.0]",0
1606295409936166894,,44395,,1606295410,45090893,"""spatial""",,0,0,38.2546351414,140.835521185,197.531890869,"[-1.0, 0.0, 0.0, 0.0, 0.0, 0.0, 0.0, 0.0, 0.0]",0
1606295410039657958,,44396,,1606295410,135954527,"""spatial""",,0,0,38.2546351616,140.835521185,197.530410767,"[-1.0, 0.0, 0.0, 0.0, 0.0, 0.0, 0.0, 0.0, 0.0]",0
1606295410138924390,,44397,,1606295410,240064948,"""spatial""",,0,0,38.25463516,140.835521191,197.530105591,"[-1.0, 0.0, 0.0, 0.0, 0.0, 0.0, 0.0, 0.0, 0.0]",0
1606295410240742267,,44398,,1606295410,334709845,"""spatial""",,0,0,38.2546351835,140.83552117,197.529129028,"[-1.0, 0.0, 0.0, 0.0, 0.0, 0.0, 0.0, 0.0, 0.0]",0
1606295410358048464,,44399,,1606295410,435629191,"""spatial""",,0,0,38.254635189,140.835521175,197.528884888,"[-1.0, 0.0, 0.0, 0.0, 0.0, 0.0, 0.0, 0.0, 0.0]",0
1606295410437169866,,44400,,1606295410,535149824,"""spatial""",,0,0,38.2546352116,140.835521181,197.528900146,"[-1.0, 0.0, 0.0, 0.0, 0.0, 0.0, 0.0, 0.0, 0.0]",0
1606295410539712900,,44401,,1606295410,639580633,"""spatial""",,0,0,38.2546352179,140.835521191,197.528320312,"[-1.0, 0.0, 0.0, 0.0, 0.0, 0.0, 0.0, 0.0, 0.0]",0
1606295410633313905,,44402,,1606295410,730448767,"""spatial""",,0,0,38.2546352314,140.835521208,197.527938843,"[-1.0, 0.0, 0.0, 0.0, 0.0, 0.0, 0.0, 0.0, 0.0]",0
1606295410740901507,,44403,,1606295410,835529725,"""spatial""",,0,0,38.2546352304,140.835521209,197.52734375,"[-1.0, 0.0, 0.0, 0.0, 0.0, 0.0, 0.0, 0.0, 0.0]",0
1606295410844841818,,44404,,1606295410,945290946,"""spatial""",,0,0,38.25463524,140.835521213,197.527145386,"[-1.0, 0.0, 0.0, 0.0, 0.0, 0.0, 0.0, 0.0, 0.0]",0
1606295410988565587,,44405,,1606295411,35794130,"""spatial""",,0,0,38.2546352457,140.835521214,197.526916504,"[-1.0, 0.0, 0.0, 0.0, 0.0, 0.0, 0.0, 0.0, 0.0]",0
1606295411249732526,,44406,,1606295411,127836339,"""spatial""",,0,0,38.2546352524,140.835521209,197.526977539,"[-1.0, 0.0, 0.0, 0.0, 0.0, 0.0, 0.0, 0.0, 0.0]",0
1606295411313613166,,44407,,1606295411,230446348,"""spatial""",,0,0,38.2546352663,140.835521212,197.526763916,"[-1.0, 0.0, 0.0, 0.0, 0.0, 0.0, 0.0, 0.0, 0.0]",0
1606295411313628471,,44408,,1606295411,344463819,"""spatial""",,0,0,38.2546352733,140.835521212,197.526031494,"[-1.0, 0.0, 0.0, 0.0, 0.0, 0.0, 0.0, 0.0, 0.0]",0
1606295411372308102,,44409,,1606295411,429961740,"""spatial""",,0,0,38.2546352848,140.835521164,197.525314331,"[-1.0, 0.0, 0.0, 0.0, 0.0, 0.0, 0.0, 0.0, 0.0]",0
1606295411466265523,,44410,,1606295411,544837836,"""spatial""",,0,0,38.2546352908,140.835521154,197.525344849,"[-1.0, 0.0, 0.0, 0.0, 0.0, 0.0, 0.0, 0.0, 0.0]",0
1606295411589158593,,44411,,1606295411,630098583,"""spatial""",,0,0,38.2546353179,140.835521165,197.526123047,"[-1.0, 0.0, 0.0, 0.0, 0.0, 0.0, 0.0, 0.0, 0.0]",0
1606295411688056861,,44412,,1606295411,740515566,"""spatial""",,0,0,38.2546353236,140.835521167,197.526107788,"[-1.0, 0.0, 0.0, 0.0, 0.0, 0.0, 0.0, 0.0, 0.0]",0
1606295411758944465,,44413,,1606295411,845222387,"""spatial""",,0,0,38.2546353385,140.835521155,197.525909424,"[-1.0, 0.0, 0.0, 0.0, 0.0, 0.0, 0.0, 0.0, 0.0]",0
1606295411864165076,,44414,,1606295411,936099933,"""spatial""",,0,0,38.2546353619,140.835521147,197.526168823,"[-1.0, 0.0, 0.0, 0.0, 0.0, 0.0, 0.0, 0.0, 0.0]",0
1606295411936749153,,44415,,1606295412,45120754,"""spatial""",,0,0,38.254635364,140.835521158,197.525924683,"[-1.0, 0.0, 0.0, 0.0, 0.0, 0.0, 0.0, 0.0, 0.0]",0
1606295412028833271,,44416,,1606295412,136225813,"""spatial""",,0,0,38.2546353855,140.835521139,197.526000977,"[-1.0, 0.0, 0.0, 0.0, 0.0, 0.0, 0.0, 0.0, 0.0]",0
1606295412130185200,,44417,,1606295412,240413172,"""spatial""",,0,0,38.2546353889,140.835521151,197.525421143,"[-1.0, 0.0, 0.0, 0.0, 0.0, 0.0, 0.0, 0.0, 0.0]",0
1606295412225842613,,44418,,1606295412,335091106,"""spatial""",,0,0,38.254635409,140.835521134,197.525466919,"[-1.0, 0.0, 0.0, 0.0, 0.0, 0.0, 0.0, 0.0, 0.0]",0
1606295412330874927,,44419,,1606295412,439673214,"""spatial""",,0,0,38.2546354173,140.835521142,197.525238037,"[-1.0, 0.0, 0.0, 0.0, 0.0, 0.0, 0.0, 0.0, 0.0]",0
1606295412430164259,,44420,,1606295412,535327011,"""spatial""",,0,0,38.2546354225,140.835521135,197.524642944,"[-1.0, 0.0, 0.0, 0.0, 0.0, 0.0, 0.0, 0.0, 0.0]",0
1606295412529149016,,44421,,1606295412,639599782,"""spatial""",,0,0,38.2546354307,140.835521136,197.52406311,"[-1.0, 0.0, 0.0, 0.0, 0.0, 0.0, 0.0, 0.0, 0.0]",0
1606295412622049078,,44422,,1606295412,730558528,"""spatial""",,0,0,38.2546354407,140.835521121,197.523269653,"[-1.0, 0.0, 0.0, 0.0, 0.0, 0.0, 0.0, 0.0, 0.0]",0
1606295412727740483,,44423,,1606295412,835634987,"""spatial""",,0,0,38.2546354486,140.835521118,197.522872925,"[-1.0, 0.0, 0.0, 0.0, 0.0, 0.0, 0.0, 0.0, 0.0]",0
1606295412818561693,,44424,,1606295412,927897483,"""spatial""",,0,0,38.2546354431,140.83552113,197.522232056,"[-1.0, 0.0, 0.0, 0.0, 0.0, 0.0, 0.0, 0.0, 0.0]",0
1606295412929557156,,44425,,1606295413,35531667,"""spatial""",,0,0,38.2546354466,140.83552113,197.522293091,"[-1.0, 0.0, 0.0, 0.0, 0.0, 0.0, 0.0, 0.0, 0.0]",0
1606295413168030028,,44426,,1606295413,128187176,"""spatial""",,0,0,38.2546354313,140.835521133,197.521911621,"[-1.0, 0.0, 0.0, 0.0, 0.0, 0.0, 0.0, 0.0, 0.0]",0
1606295413262586560,,44427,,1606295413,235300396,"""spatial""",,0,0,38.2546354256,140.835521129,197.521911621,"[-1.0, 0.0, 0.0, 0.0, 0.0, 0.0, 0.0, 0.0, 0.0]",0
1606295413304649924,,44428,,1606295413,344717367,"""spatial""",,0,0,38.2546354201,140.835521128,197.521408081,"[-1.0, 0.0, 0.0, 0.0, 0.0, 0.0, 0.0, 0.0, 0.0]",0
1606295413343038032,,44429,,1606295413,430277026,"""spatial""",,0,0,38.2546354101,140.835521121,197.521392822,"[-1.0, 0.0, 0.0, 0.0, 0.0, 0.0, 0.0, 0.0, 0.0]",0
1606295413434404332,,44430,,1606295413,545305147,"""spatial""",,0,0,38.2546354281,140.83552111,197.521743774,"[-1.0, 0.0, 0.0, 0.0, 0.0, 0.0, 0.0, 0.0, 0.0]",0
1606295413520121960,,44431,,1606295413,630440694,"""spatial""",,0,0,38.2546354511,140.8355211,197.521881104,"[-1.0, 0.0, 0.0, 0.0, 0.0, 0.0, 0.0, 0.0, 0.0]",0
1606295413634885179,,44432,,1606295413,741047915,"""spatial""",,0,0,38.2546354437,140.835521131,197.523254395,"[-1.0, 0.0, 0.0, 0.0, 0.0, 0.0, 0.0, 0.0, 0.0]",0
1606295413753288220,,44433,,1606295413,845257648,"""spatial""",,0,0,38.254635449,140.835521134,197.523345947,"[-1.0, 0.0, 0.0, 0.0, 0.0, 0.0, 0.0, 0.0, 0.0]",0
1606295413844253393,,44434,,1606295413,936771107,"""spatial""",,0,0,38.2546352553,140.835521215,197.525222778,"[-1.0, 0.0, 0.0, 0.0, 0.0, 0.0, 0.0, 0.0, 0.0]",0
1606295413918535987,,44435,,1606295414,29523291,"""spatial""",,0,0,38.2546352076,140.835521245,197.524856567,"[-1.0, 0.0, 0.0, 0.0, 0.0, 0.0, 0.0, 0.0, 0.0]",0
1606295414026728338,,44436,,1606295414,136637687,"""spatial""",,0,0,38.2546351168,140.835521325,197.526397705,"[-1.0, 0.0, 0.0, 0.0, 0.0, 0.0, 0.0, 0.0, 0.0]",0
1606295414134395130,,44437,,1606295414,244651395,"""spatial""",,0,0,38.2546350527,140.835521364,197.525985718,"[-1.0, 0.0, 0.0, 0.0, 0.0, 0.0, 0.0, 0.0, 0.0]",0
1606295414224783455,,44438,,1606295414,335118367,"""spatial""",,0,0,38.2546349779,140.835521447,197.527008057,"[-1.0, 0.0, 0.0, 0.0, 0.0, 0.0, 0.0, 0.0, 0.0]",0
1606295414329091659,,44439,,1606295414,439638188,"""spatial""",,0,0,38.2546349039,140.835521504,197.526657104,"[-1.0, 0.0, 0.0, 0.0, 0.0, 0.0, 0.0, 0.0, 0.0]",0
1606295414425759685,,44440,,1606295414,535430634,"""spatial""",,0,0,38.2546348772,140.835521528,197.527801514,"[-1.0, 0.0, 0.0, 0.0, 0.0, 0.0, 0.0, 0.0, 0.0]",0
1606295414529313939,,44441,,1606295414,639840243,"""spatial""",,0,0,38.2546348239,140.835521578,197.527740479,"[-1.0, 0.0, 0.0, 0.0, 0.0, 0.0, 0.0, 0.0, 0.0]",0
1606295414626278174,,44442,,1606295414,730853102,"""spatial""",,0,0,38.254634786,140.835521582,197.52947998,"[-1.0, 0.0, 0.0, 0.0, 0.0, 0.0, 0.0, 0.0, 0.0]",0
1606295414726240616,,44443,,1606295414,835640335,"""spatial""",,0,0,38.2546347413,140.835521616,197.530456543,"[-1.0, 0.0, 0.0, 0.0, 0.0, 0.0, 0.0, 0.0, 0.0]",0
1606295414818738190,,44444,,1606295414,927946469,"""spatial""",,0,0,38.2546347147,140.835521606,197.531997681,"[-1.0, 0.0, 0.0, 0.0, 0.0, 0.0, 0.0, 0.0, 0.0]",0
1606295414926150207,,44445,,1606295415,35937053,"""spatial""",,0,0,38.2546346786,140.835521625,197.532531738,"[-1.0, 0.0, 0.0, 0.0, 0.0, 0.0, 0.0, 0.0, 0.0]",0
1606295415029409039,,44446,,1606295415,130253787,"""spatial""",,0,0,38.2546346736,140.835521607,197.533874512,"[-1.0, 0.0, 0.0, 0.0, 0.0, 0.0, 0.0, 0.0, 0.0]",0
1606295415163242526,,44447,,1606295415,235345520,"""spatial""",,0,0,38.2546346477,140.835521618,197.534759521,"[-1.0, 0.0, 0.0, 0.0, 0.0, 0.0, 0.0, 0.0, 0.0]",0
1606295415293433477,,44448,,1606295415,345053641,"""spatial""",,0,0,38.2546346541,140.835521603,197.535888672,"[-1.0, 0.0, 0.0, 0.0, 0.0, 0.0, 0.0, 0.0, 0.0]",0
1606295415351512220,,44449,,1606295415,430393913,"""spatial""",,0,0,38.254634636,140.835521607,197.535919189,"[-1.0, 0.0, 0.0, 0.0, 0.0, 0.0, 0.0, 0.0, 0.0]",0
1606295415437032420,,44450,,1606295415,545303271,"""spatial""",,0,0,38.2546346237,140.83552158,197.535720825,"[-1.0, 0.0, 0.0, 0.0, 0.0, 0.0, 0.0, 0.0, 0.0]",0
1606295415536971025,,44451,,1606295415,630795343,"""spatial""",,0,0,38.254634606,140.835521578,197.535095215,"[-1.0, 0.0, 0.0, 0.0, 0.0, 0.0, 0.0, 0.0, 0.0]",0
