rosbagTimestamp,header,seq,stamp,secs,nsecs,frame_id,magnetic_field,x,y,z,magnetic_field_covariance
1606295379778809394,,88171,,1606295379,26344064,"""spatial""",,4.3553527832e-05,-4.03353805542e-06,2.18673904419e-05,"[0.0, 0.0, 0.0, 0.0, 0.0, 0.0, 0.0, 0.0, 0.0]"
1606295379778830969,,88172,,1606295379,78745624,"""spatial""",,4.35514251709e-05,-4.34525375366e-06,2.18867462158e-05,"[0.0, 0.0, 0.0, 0.0, 0.0, 0.0, 0.0, 0.0, 0.0]"
1606295379778856442,,88173,,1606295379,133381310,"""spatial""",,4.35977905273e-05,-4.66608047485e-06,2.19273849487e-05,"[0.0, 0.0, 0.0, 0.0, 0.0, 0.0, 0.0, 0.0, 0.0]"
1606295379778946785,,88174,,1606295379,192827045,"""spatial""",,4.35335449219e-05,-4.84382896423e-06,2.19246490479e-05,"[0.0, 0.0, 0.0, 0.0, 0.0, 0.0, 0.0, 0.0, 0.0]"
1606295379778996549,,88175,,1606295379,225409744,"""spatial""",,4.35868133545e-05,-5.09532470703e-06,2.18973724365e-05,"[0.0, 0.0, 0.0, 0.0, 0.0, 0.0, 0.0, 0.0, 0.0]"
1606295379779007501,,88176,,1606295379,274614479,"""spatial""",,4.3622845459e-05,-5.37777442932e-06,2.19049819946e-05,"[0.0, 0.0, 0.0, 0.0, 0.0, 0.0, 0.0, 0.0, 0.0]"
1606295379779025267,,88177,,1606295379,328464127,"""spatial""",,4.36491210937e-05,-5.54171524048e-06,2.18877838135e-05,"[0.0, 0.0, 0.0, 0.0, 0.0, 0.0, 0.0, 0.0, 0.0]"
1606295379779046088,,88178,,1606295379,388028550,"""spatial""",,4.36073547363e-05,-5.80769767761e-06,2.18038574219e-05,"[0.0, 0.0, 0.0, 0.0, 0.0, 0.0, 0.0, 0.0, 0.0]"
1606295379779269063,,88179,,1606295379,424627361,"""spatial""",,4.36316223145e-05,-5.9578540802e-06,2.18129882812e-05,"[0.0, 0.0, 0.0, 0.0, 0.0, 0.0, 0.0, 0.0, 0.0]"
1606295379779469961,,88180,,1606295379,477935222,"""spatial""",,4.36685913086e-05,-6.03636474609e-06,2.1820072937e-05,"[0.0, 0.0, 0.0, 0.0, 0.0, 0.0, 0.0, 0.0, 0.0]"
1606295379779495618,,88181,,1606295379,528868645,"""spatial""",,4.36622406006e-05,-6.24767875671e-06,2.17608459473e-05,"[0.0, 0.0, 0.0, 0.0, 0.0, 0.0, 0.0, 0.0, 0.0]"
1606295379779513085,,88182,,1606295379,588262880,"""spatial""",,4.36718933105e-05,-6.3012638092e-06,2.16927490234e-05,"[0.0, 0.0, 0.0, 0.0, 0.0, 0.0, 0.0, 0.0, 0.0]"
1606295379779540967,,88183,,1606295379,624765566,"""spatial""",,4.36798400879e-05,-6.39203491211e-06,2.17943603516e-05,"[0.0, 0.0, 0.0, 0.0, 0.0, 0.0, 0.0, 0.0, 0.0]"
1606295379779702255,,88184,,1606295379,693317401,"""spatial""",,4.367940979e-05,-6.47087478638e-06,2.17321655273e-05,"[0.0, 0.0, 0.0, 0.0, 0.0, 0.0, 0.0, 0.0, 0.0]"
1606295379779721276,,88185,,1606295379,728088350,"""spatial""",,4.36811309814e-05,-6.44839477539e-06,2.18060180664e-05,"[0.0, 0.0, 0.0, 0.0, 0.0, 0.0, 0.0, 0.0, 0.0]"
1606295379779737842,,88186,,1606295379,783667910,"""spatial""",,4.37001739502e-05,-6.58355331421e-06,2.17522323608e-05,"[0.0, 0.0, 0.0, 0.0, 0.0, 0.0, 0.0, 0.0, 0.0]"
1606295379779753781,,88187,,1606295379,832926158,"""spatial""",,4.38357177734e-05,-6.65527954102e-06,2.16274719238e-05,"[0.0, 0.0, 0.0, 0.0, 0.0, 0.0, 0.0, 0.0, 0.0]"
1606295379786889540,,88188,,1606295379,888471519,"""spatial""",,4.39090423584e-05,-6.61865921021e-06,2.14206054687e-05,"[0.0, 0.0, 0.0, 0.0, 0.0, 0.0, 0.0, 0.0, 0.0]"
1606295379817607350,,88189,,1606295379,925412405,"""spatial""",,4.40395202637e-05,-6.55614624023e-06,2.12309448242e-05,"[0.0, 0.0, 0.0, 0.0, 0.0, 0.0, 0.0, 0.0, 0.0]"
1606295379876446185,,88190,,1606295379,984062677,"""spatial""",,4.39921875e-05,-6.54006652832e-06,2.12426513672e-05,"[0.0, 0.0, 0.0, 0.0, 0.0, 0.0, 0.0, 0.0, 0.0]"
1606295379925465786,,88191,,1606295380,33425075,"""spatial""",,4.40987060547e-05,-6.57774353027e-06,2.11391998291e-05,"[0.0, 0.0, 0.0, 0.0, 0.0, 0.0, 0.0, 0.0, 0.0]"
1606295379981402819,,88192,,1606295380,88699861,"""spatial""",,4.40841247559e-05,-6.68349304199e-06,2.11513717651e-05,"[0.0, 0.0, 0.0, 0.0, 0.0, 0.0, 0.0, 0.0, 0.0]"
1606295380017746435,,88193,,1606295380,125305334,"""spatial""",,4.4094140625e-05,-6.76528320312e-06,2.1089390564e-05,"[0.0, 0.0, 0.0, 0.0, 0.0, 0.0, 0.0, 0.0, 0.0]"
1606295380076406014,,88194,,1606295380,183239957,"""spatial""",,4.40550720215e-05,-6.90236206055e-06,2.11150558472e-05,"[0.0, 0.0, 0.0, 0.0, 0.0, 0.0, 0.0, 0.0, 0.0]"
1606295380120614124,,88195,,1606295380,228338756,"""spatial""",,4.40787414551e-05,-6.90513458252e-06,2.11375930786e-05,"[0.0, 0.0, 0.0, 0.0, 0.0, 0.0, 0.0, 0.0, 0.0]"
1606295380180656177,,88196,,1606295380,287776028,"""spatial""",,4.40560638428e-05,-6.9271736145e-06,2.11671936035e-05,"[0.0, 0.0, 0.0, 0.0, 0.0, 0.0, 0.0, 0.0, 0.0]"
1606295380231128031,,88197,,1606295380,338634239,"""spatial""",,4.39952697754e-05,-6.96161346436e-06,2.1137562561e-05,"[0.0, 0.0, 0.0, 0.0, 0.0, 0.0, 0.0, 0.0, 0.0]"
1606295380271427224,,88198,,1606295380,378418262,"""spatial""",,4.38877593994e-05,-7.05074310303e-06,2.12782470703e-05,"[0.0, 0.0, 0.0, 0.0, 0.0, 0.0, 0.0, 0.0, 0.0]"
1606295380321128197,,88199,,1606295380,427335910,"""spatial""",,4.37988372803e-05,-7.06185913086e-06,2.14912963867e-05,"[0.0, 0.0, 0.0, 0.0, 0.0, 0.0, 0.0, 0.0, 0.0]"
1606295380380740433,,88200,,1606295380,488809083,"""spatial""",,4.36833648682e-05,-7.17441864014e-06,2.16880889893e-05,"[0.0, 0.0, 0.0, 0.0, 0.0, 0.0, 0.0, 0.0, 0.0]"
1606295380422458772,,88201,,1606295380,524685369,"""spatial""",,4.3561126709e-05,-7.25344161987e-06,2.1959715271e-05,"[0.0, 0.0, 0.0, 0.0, 0.0, 0.0, 0.0, 0.0, 0.0]"
1606295380491646688,,88202,,1606295380,578347917,"""spatial""",,4.34093322754e-05,-7.30446395874e-06,2.22056640625e-05,"[0.0, 0.0, 0.0, 0.0, 0.0, 0.0, 0.0, 0.0, 0.0]"
1606295380520931958,,88203,,1606295380,627366453,"""spatial""",,4.33722839355e-05,-7.36101455688e-06,2.24181350708e-05,"[0.0, 0.0, 0.0, 0.0, 0.0, 0.0, 0.0, 0.0, 0.0]"
1606295380574893427,,88204,,1606295380,683469363,"""spatial""",,4.32863433838e-05,-7.56701507568e-06,2.26497497559e-05,"[0.0, 0.0, 0.0, 0.0, 0.0, 0.0, 0.0, 0.0, 0.0]"
1606295380631734457,,88205,,1606295380,737945011,"""spatial""",,4.31724304199e-05,-7.65818023682e-06,2.28002532959e-05,"[0.0, 0.0, 0.0, 0.0, 0.0, 0.0, 0.0, 0.0, 0.0]"
1606295380667512194,,88206,,1606295380,774494735,"""spatial""",,4.31256713867e-05,-7.84624023437e-06,2.28402328491e-05,"[0.0, 0.0, 0.0, 0.0, 0.0, 0.0, 0.0, 0.0, 0.0]"
1606295380724731420,,88207,,1606295380,826473295,"""spatial""",,4.30138580322e-05,-8.19316558838e-06,2.29857757568e-05,"[0.0, 0.0, 0.0, 0.0, 0.0, 0.0, 0.0, 0.0, 0.0]"
1606295380771388829,,88208,,1606295380,878880093,"""spatial""",,4.29239807129e-05,-8.54001922607e-06,2.31793640137e-05,"[0.0, 0.0, 0.0, 0.0, 0.0, 0.0, 0.0, 0.0, 0.0]"
1606295380827468037,,88209,,1606295380,933689541,"""spatial""",,4.28639221191e-05,-8.81313171387e-06,2.31918838501e-05,"[0.0, 0.0, 0.0, 0.0, 0.0, 0.0, 0.0, 0.0, 0.0]"
1606295380871015677,,88210,,1606295380,974708190,"""spatial""",,4.28602081299e-05,-9.04914093018e-06,2.32095184326e-05,"[0.0, 0.0, 0.0, 0.0, 0.0, 0.0, 0.0, 0.0, 0.0]"
1606295380924304758,,88211,,1606295381,26545013,"""spatial""",,4.28335327148e-05,-9.29805450439e-06,2.31964202881e-05,"[0.0, 0.0, 0.0, 0.0, 0.0, 0.0, 0.0, 0.0, 0.0]"
1606295380977087561,,88212,,1606295381,82902835,"""spatial""",,4.27707336426e-05,-9.59845962524e-06,2.32851455688e-05,"[0.0, 0.0, 0.0, 0.0, 0.0, 0.0, 0.0, 0.0, 0.0]"
1606295381284738117,,88213,,1606295381,133604071,"""spatial""",,4.26644104004e-05,-9.81625213623e-06,2.34020263672e-05,"[0.0, 0.0, 0.0, 0.0, 0.0, 0.0, 0.0, 0.0, 0.0]"
1606295381351208845,,88214,,1606295381,193022181,"""spatial""",,4.25181427002e-05,-1.00226669312e-05,2.34018112183e-05,"[0.0, 0.0, 0.0, 0.0, 0.0, 0.0, 0.0, 0.0, 0.0]"
1606295381351218159,,88215,,1606295381,225754867,"""spatial""",,4.24806091309e-05,-1.01115234375e-05,2.34924331665e-05,"[0.0, 0.0, 0.0, 0.0, 0.0, 0.0, 0.0, 0.0, 0.0]"
1606295381351223954,,88216,,1606295381,277976078,"""spatial""",,4.24433441162e-05,-1.02014877319e-05,2.35152359009e-05,"[0.0, 0.0, 0.0, 0.0, 0.0, 0.0, 0.0, 0.0, 0.0]"
1606295381351230723,,88217,,1606295381,328830801,"""spatial""",,4.24981689453e-05,-1.01100082397e-05,2.35274932861e-05,"[0.0, 0.0, 0.0, 0.0, 0.0, 0.0, 0.0, 0.0, 0.0]"
1606295381448377364,,88218,,1606295381,388662199,"""spatial""",,4.25200500488e-05,-1.00062576294e-05,2.34496383667e-05,"[0.0, 0.0, 0.0, 0.0, 0.0, 0.0, 0.0, 0.0, 0.0]"
1606295381448384746,,88219,,1606295381,424896560,"""spatial""",,4.24535980225e-05,-9.77362213135e-06,2.33758087158e-05,"[0.0, 0.0, 0.0, 0.0, 0.0, 0.0, 0.0, 0.0, 0.0]"
1606295381500642676,,88220,,1606295381,478224333,"""spatial""",,4.24375213623e-05,-9.65069580078e-06,2.34927459717e-05,"[0.0, 0.0, 0.0, 0.0, 0.0, 0.0, 0.0, 0.0, 0.0]"
1606295381500649900,,88221,,1606295381,532919731,"""spatial""",,4.24516296387e-05,-9.49371795654e-06,2.34652084351e-05,"[0.0, 0.0, 0.0, 0.0, 0.0, 0.0, 0.0, 0.0, 0.0]"
1606295381552705226,,88222,,1606295381,588451966,"""spatial""",,4.24058319092e-05,-9.26234207153e-06,2.33948654175e-05,"[0.0, 0.0, 0.0, 0.0, 0.0, 0.0, 0.0, 0.0, 0.0]"
1606295381590722531,,88223,,1606295381,625020665,"""spatial""",,4.24508972168e-05,-9.02727203369e-06,2.34318008423e-05,"[0.0, 0.0, 0.0, 0.0, 0.0, 0.0, 0.0, 0.0, 0.0]"
1606295381617455775,,88224,,1606295381,693523912,"""spatial""",,4.23679199219e-05,-8.83574905396e-06,2.3431539917e-05,"[0.0, 0.0, 0.0, 0.0, 0.0, 0.0, 0.0, 0.0, 0.0]"
1606295381691891715,,88225,,1606295381,728121373,"""spatial""",,4.22995849609e-05,-8.56980667114e-06,2.353309021e-05,"[0.0, 0.0, 0.0, 0.0, 0.0, 0.0, 0.0, 0.0, 0.0]"
1606295381719511944,,88226,,1606295381,784086334,"""spatial""",,4.22435577393e-05,-8.49010391235e-06,2.36481262207e-05,"[0.0, 0.0, 0.0, 0.0, 0.0, 0.0, 0.0, 0.0, 0.0]"
1606295381744532830,,88227,,1606295381,833406619,"""spatial""",,4.22022033691e-05,-8.35747146606e-06,2.365105896e-05,"[0.0, 0.0, 0.0, 0.0, 0.0, 0.0, 0.0, 0.0, 0.0]"
1606295381781163967,,88228,,1606295381,888818430,"""spatial""",,4.21395721436e-05,-8.42273483276e-06,2.36787567139e-05,"[0.0, 0.0, 0.0, 0.0, 0.0, 0.0, 0.0, 0.0, 0.0]"
1606295381817694833,,88229,,1606295381,925317278,"""spatial""",,4.20932891846e-05,-8.53905639648e-06,2.37959854126e-05,"[0.0, 0.0, 0.0, 0.0, 0.0, 0.0, 0.0, 0.0, 0.0]"
1606295381876088102,,88230,,1606295381,984131376,"""spatial""",,4.21414398193e-05,-8.48024139404e-06,2.36281463623e-05,"[0.0, 0.0, 0.0, 0.0, 0.0, 0.0, 0.0, 0.0, 0.0]"
1606295381970722549,,88231,,1606295382,33454624,"""spatial""",,4.22744628906e-05,-8.46946105957e-06,2.33696105957e-05,"[0.0, 0.0, 0.0, 0.0, 0.0, 0.0, 0.0, 0.0, 0.0]"
1606295382002823909,,88232,,1606295382,92976297,"""spatial""",,4.23483428955e-05,-8.51086578369e-06,2.32022415161e-05,"[0.0, 0.0, 0.0, 0.0, 0.0, 0.0, 0.0, 0.0, 0.0]"
1606295382018404573,,88233,,1606295382,125522208,"""spatial""",,4.24026489258e-05,-8.56713485718e-06,2.28656265259e-05,"[0.0, 0.0, 0.0, 0.0, 0.0, 0.0, 0.0, 0.0, 0.0]"
1606295382080600803,,88234,,1606295382,183483281,"""spatial""",,4.25897796631e-05,-8.60928649902e-06,2.2609336853e-05,"[0.0, 0.0, 0.0, 0.0, 0.0, 0.0, 0.0, 0.0, 0.0]"
1606295382120841347,,88235,,1606295382,228905779,"""spatial""",,4.26752258301e-05,-8.53694839478e-06,2.23076202393e-05,"[0.0, 0.0, 0.0, 0.0, 0.0, 0.0, 0.0, 0.0, 0.0]"
1606295382179708804,,88236,,1606295382,288248364,"""spatial""",,4.28080230713e-05,-8.51203689575e-06,2.20718719482e-05,"[0.0, 0.0, 0.0, 0.0, 0.0, 0.0, 0.0, 0.0, 0.0]"
1606295382216739911,,88237,,1606295382,324599988,"""spatial""",,4.2921307373e-05,-8.52680358887e-06,2.18026428223e-05,"[0.0, 0.0, 0.0, 0.0, 0.0, 0.0, 0.0, 0.0, 0.0]"
1606295382271167001,,88238,,1606295382,378512299,"""spatial""",,4.30601104736e-05,-8.4214515686e-06,2.15139389038e-05,"[0.0, 0.0, 0.0, 0.0, 0.0, 0.0, 0.0, 0.0, 0.0]"
1606295382319724732,,88239,,1606295382,427341247,"""spatial""",,4.31848815918e-05,-8.41934814453e-06,2.11614746094e-05,"[0.0, 0.0, 0.0, 0.0, 0.0, 0.0, 0.0, 0.0, 0.0]"
1606295382380193040,,88240,,1606295382,488292769,"""spatial""",,4.31848846436e-05,-8.46951141357e-06,2.10625061035e-05,"[0.0, 0.0, 0.0, 0.0, 0.0, 0.0, 0.0, 0.0, 0.0]"
1606295382417628971,,88241,,1606295382,524860255,"""spatial""",,4.32487609863e-05,-8.55374069214e-06,2.09577835083e-05,"[0.0, 0.0, 0.0, 0.0, 0.0, 0.0, 0.0, 0.0, 0.0]"
1606295382470827210,,88242,,1606295382,578727053,"""spatial""",,4.31723724365e-05,-8.58750839233e-06,2.10337890625e-05,"[0.0, 0.0, 0.0, 0.0, 0.0, 0.0, 0.0, 0.0, 0.0]"
1606295382519888322,,88243,,1606295382,627883127,"""spatial""",,4.32412506104e-05,-8.68048706055e-06,2.10684860229e-05,"[0.0, 0.0, 0.0, 0.0, 0.0, 0.0, 0.0, 0.0, 0.0]"
1606295382575099805,,88244,,1606295382,683829099,"""spatial""",,4.32844787598e-05,-8.67916717529e-06,2.089271698e-05,"[0.0, 0.0, 0.0, 0.0, 0.0, 0.0, 0.0, 0.0, 0.0]"
1606295382630590246,,88245,,1606295382,738347185,"""spatial""",,4.33763122559e-05,-8.6237663269e-06,2.06408065796e-05,"[0.0, 0.0, 0.0, 0.0, 0.0, 0.0, 0.0, 0.0, 0.0]"
1606295382671404256,,88246,,1606295382,774805371,"""spatial""",,4.33578613281e-05,-8.62349243164e-06,2.05628601074e-05,"[0.0, 0.0, 0.0, 0.0, 0.0, 0.0, 0.0, 0.0, 0.0]"
1606295382718460902,,88247,,1606295382,826604044,"""spatial""",,4.33191589355e-05,-8.66496124268e-06,2.07058624268e-05,"[0.0, 0.0, 0.0, 0.0, 0.0, 0.0, 0.0, 0.0, 0.0]"
1606295383035091403,,88248,,1606295382,883078154,"""spatial""",,4.32517700195e-05,-8.56303024292e-06,2.08939575195e-05,"[0.0, 0.0, 0.0, 0.0, 0.0, 0.0, 0.0, 0.0, 0.0]"
1606295383084422019,,88249,,1606295382,933741215,"""spatial""",,4.32386688232e-05,-8.53985748291e-06,2.08070587158e-05,"[0.0, 0.0, 0.0, 0.0, 0.0, 0.0, 0.0, 0.0, 0.0]"
1606295383084432516,,88250,,1606295382,978055688,"""spatial""",,4.34441436768e-05,-8.36710281372e-06,2.05219451904e-05,"[0.0, 0.0, 0.0, 0.0, 0.0, 0.0, 0.0, 0.0, 0.0]"
1606295383084437321,,88251,,1606295383,26802124,"""spatial""",,4.33337524414e-05,-8.40974273682e-06,2.0629876709e-05,"[0.0, 0.0, 0.0, 0.0, 0.0, 0.0, 0.0, 0.0, 0.0]"
1606295383084441277,,88252,,1606295383,83208897,"""spatial""",,4.31149169922e-05,-8.79628753662e-06,2.11411575317e-05,"[0.0, 0.0, 0.0, 0.0, 0.0, 0.0, 0.0, 0.0, 0.0]"
1606295383111107907,,88253,,1606295383,133980945,"""spatial""",,4.28587219238e-05,-8.95572738647e-06,2.17776901245e-05,"[0.0, 0.0, 0.0, 0.0, 0.0, 0.0, 0.0, 0.0, 0.0]"
1606295383111116618,,88254,,1606295383,193485767,"""spatial""",,4.26858306885e-05,-9.13336334229e-06,2.21821807861e-05,"[0.0, 0.0, 0.0, 0.0, 0.0, 0.0, 0.0, 0.0, 0.0]"
1606295383189192220,,88255,,1606295383,225920704,"""spatial""",,4.28538208008e-05,-9.14675979614e-06,2.17870819092e-05,"[0.0, 0.0, 0.0, 0.0, 0.0, 0.0, 0.0, 0.0, 0.0]"
1606295383212973264,,88256,,1606295383,278264602,"""spatial""",,4.29128112793e-05,-9.0528213501e-06,2.182759552e-05,"[0.0, 0.0, 0.0, 0.0, 0.0, 0.0, 0.0, 0.0, 0.0]"
1606295383258974521,,88257,,1606295383,332971762,"""spatial""",,4.25660339355e-05,-9.04252243042e-06,2.24365325928e-05,"[0.0, 0.0, 0.0, 0.0, 0.0, 0.0, 0.0, 0.0, 0.0]"
1606295383295023048,,88258,,1606295383,388611685,"""spatial""",,4.25251098633e-05,-9.10859146118e-06,2.24684539795e-05,"[0.0, 0.0, 0.0, 0.0, 0.0, 0.0, 0.0, 0.0, 0.0]"
1606295383329697864,,88259,,1606295383,425200921,"""spatial""",,4.27452789307e-05,-8.88194732666e-06,2.21821243286e-05,"[0.0, 0.0, 0.0, 0.0, 0.0, 0.0, 0.0, 0.0, 0.0]"
1606295383432648475,,88260,,1606295383,478531344,"""spatial""",,4.28932037354e-05,-8.66108856201e-06,2.18262374878e-05,"[0.0, 0.0, 0.0, 0.0, 0.0, 0.0, 0.0, 0.0, 0.0]"
1606295383455607780,,88261,,1606295383,533189879,"""spatial""",,4.29810913086e-05,-8.53477096558e-06,2.15035339355e-05,"[0.0, 0.0, 0.0, 0.0, 0.0, 0.0, 0.0, 0.0, 0.0]"
1606295383498854566,,88262,,1606295383,588927852,"""spatial""",,4.30762451172e-05,-8.4492767334e-06,2.14096466064e-05,"[0.0, 0.0, 0.0, 0.0, 0.0, 0.0, 0.0, 0.0, 0.0]"
1606295383520599181,,88263,,1606295383,625460376,"""spatial""",,4.30974212646e-05,-8.45386047363e-06,2.12410476685e-05,"[0.0, 0.0, 0.0, 0.0, 0.0, 0.0, 0.0, 0.0, 0.0]"
1606295383587562623,,88264,,1606295383,693924748,"""spatial""",,4.31672302246e-05,-8.32779693604e-06,2.11061676025e-05,"[0.0, 0.0, 0.0, 0.0, 0.0, 0.0, 0.0, 0.0, 0.0]"
1606295383632396811,,88265,,1606295383,728600885,"""spatial""",,4.32870697021e-05,-8.01130218506e-06,2.11170272827e-05,"[0.0, 0.0, 0.0, 0.0, 0.0, 0.0, 0.0, 0.0, 0.0]"
1606295383681025717,,88266,,1606295383,784335007,"""spatial""",,4.31526000977e-05,-7.68288497925e-06,2.12113647461e-05,"[0.0, 0.0, 0.0, 0.0, 0.0, 0.0, 0.0, 0.0, 0.0]"
1606295383724967712,,88267,,1606295383,833524568,"""spatial""",,4.32381896973e-05,-7.14515609741e-06,2.11678131104e-05,"[0.0, 0.0, 0.0, 0.0, 0.0, 0.0, 0.0, 0.0, 0.0]"
1606295383788429199,,88268,,1606295383,892995391,"""spatial""",,4.32013122559e-05,-6.68254318237e-06,2.11502685547e-05,"[0.0, 0.0, 0.0, 0.0, 0.0, 0.0, 0.0, 0.0, 0.0]"
1606295383817711590,,88269,,1606295383,925529440,"""spatial""",,4.31552978516e-05,-6.15855407715e-06,2.1309564209e-05,"[0.0, 0.0, 0.0, 0.0, 0.0, 0.0, 0.0, 0.0, 0.0]"
1606295383880075054,,88270,,1606295383,987983400,"""spatial""",,4.30666992187e-05,-5.49365921021e-06,2.16075775146e-05,"[0.0, 0.0, 0.0, 0.0, 0.0, 0.0, 0.0, 0.0, 0.0]"
1606295383925081682,,88271,,1606295384,33724810,"""spatial""",,4.29924041748e-05,-4.54780654907e-06,2.17111816406e-05,"[0.0, 0.0, 0.0, 0.0, 0.0, 0.0, 0.0, 0.0, 0.0]"
1606295383986227563,,88272,,1606295384,93362808,"""spatial""",,4.29926422119e-05,-3.37345466614e-06,2.17319473267e-05,"[0.0, 0.0, 0.0, 0.0, 0.0, 0.0, 0.0, 0.0, 0.0]"
1606295384018550448,,88273,,1606295384,126092019,"""spatial""",,4.29503753662e-05,-2.07183589935e-06,2.1597958374e-05,"[0.0, 0.0, 0.0, 0.0, 0.0, 0.0, 0.0, 0.0, 0.0]"
1606295384147926065,,88274,,1606295384,183703980,"""spatial""",,4.28396057129e-05,-5.65659999847e-07,2.13641357422e-05,"[0.0, 0.0, 0.0, 0.0, 0.0, 0.0, 0.0, 0.0, 0.0]"
1606295384174366273,,88275,,1606295384,228829553,"""spatial""",,4.26948181152e-05,1.09910259247e-06,2.12515716553e-05,"[0.0, 0.0, 0.0, 0.0, 0.0, 0.0, 0.0, 0.0, 0.0]"
1606295384201177491,,88276,,1606295384,288278638,"""spatial""",,4.24456054687e-05,2.84880523682e-06,2.11337982178e-05,"[0.0, 0.0, 0.0, 0.0, 0.0, 0.0, 0.0, 0.0, 0.0]"
1606295384216125664,,88277,,1606295384,324853574,"""spatial""",,4.21563323975e-05,4.18195991516e-06,2.11312362671e-05,"[0.0, 0.0, 0.0, 0.0, 0.0, 0.0, 0.0, 0.0, 0.0]"
1606295384272388112,,88278,,1606295384,378840472,"""spatial""",,4.18946411133e-05,5.27585525513e-06,2.11199981689e-05,"[0.0, 0.0, 0.0, 0.0, 0.0, 0.0, 0.0, 0.0, 0.0]"
1606295384320448434,,88279,,1606295384,427981608,"""spatial""",,4.17108306885e-05,6.20227394104e-06,2.10386993408e-05,"[0.0, 0.0, 0.0, 0.0, 0.0, 0.0, 0.0, 0.0, 0.0]"
1606295384380140977,,88280,,1606295384,488964668,"""spatial""",,4.15519226074e-05,6.73966598511e-06,2.09114303589e-05,"[0.0, 0.0, 0.0, 0.0, 0.0, 0.0, 0.0, 0.0, 0.0]"
1606295384417187836,,88281,,1606295384,525330529,"""spatial""",,4.16162719727e-05,6.74423828125e-06,2.08006942749e-05,"[0.0, 0.0, 0.0, 0.0, 0.0, 0.0, 0.0, 0.0, 0.0]"
1606295384470538259,,88282,,1606295384,579104002,"""spatial""",,4.18103515625e-05,6.05580062866e-06,2.07142456055e-05,"[0.0, 0.0, 0.0, 0.0, 0.0, 0.0, 0.0, 0.0, 0.0]"
1606295384520024653,,88283,,1606295384,628208363,"""spatial""",,4.22773468018e-05,4.85587425232e-06,2.05232849121e-05,"[0.0, 0.0, 0.0, 0.0, 0.0, 0.0, 0.0, 0.0, 0.0]"
1606295384575759313,,88284,,1606295384,684037048,"""spatial""",,4.27764099121e-05,3.197315979e-06,2.02085968018e-05,"[0.0, 0.0, 0.0, 0.0, 0.0, 0.0, 0.0, 0.0, 0.0]"
1606295384630972792,,88285,,1606295384,738624583,"""spatial""",,4.31893310547e-05,1.11788234711e-06,1.99529632568e-05,"[0.0, 0.0, 0.0, 0.0, 0.0, 0.0, 0.0, 0.0, 0.0]"
1606295384669491850,,88286,,1606295384,778104644,"""spatial""",,4.36276519775e-05,-1.53659820557e-06,1.97220306396e-05,"[0.0, 0.0, 0.0, 0.0, 0.0, 0.0, 0.0, 0.0, 0.0]"
1606295384718360405,,88287,,1606295384,826928080,"""spatial""",,4.38966491699e-05,-4.33163795471e-06,1.94970748901e-05,"[0.0, 0.0, 0.0, 0.0, 0.0, 0.0, 0.0, 0.0, 0.0]"
1606295384802051190,,88288,,1606295384,883635703,"""spatial""",,4.38328918457e-05,-6.8731338501e-06,1.94385620117e-05,"[0.0, 0.0, 0.0, 0.0, 0.0, 0.0, 0.0, 0.0, 0.0]"
1606295384860385579,,88289,,1606295384,934107064,"""spatial""",,4.35514221191e-05,-9.4350692749e-06,1.95554840088e-05,"[0.0, 0.0, 0.0, 0.0, 0.0, 0.0, 0.0, 0.0, 0.0]"
1606295384870935847,,88290,,1606295384,978762799,"""spatial""",,4.29684631348e-05,-1.20419799805e-05,1.99628036499e-05,"[0.0, 0.0, 0.0, 0.0, 0.0, 0.0, 0.0, 0.0, 0.0]"
1606295384918750143,,88291,,1606295385,27340972,"""spatial""",,4.21518859863e-05,-1.49263900757e-05,2.04409347534e-05,"[0.0, 0.0, 0.0, 0.0, 0.0, 0.0, 0.0, 0.0, 0.0]"
1606295384976043642,,88292,,1606295385,83491108,"""spatial""",,4.11767364502e-05,-1.76284851074e-05,2.07778366089e-05,"[0.0, 0.0, 0.0, 0.0, 0.0, 0.0, 0.0, 0.0, 0.0]"
1606295385025519583,,88293,,1606295385,134159343,"""spatial""",,4.0287890625e-05,-1.95835601807e-05,2.10356750488e-05,"[0.0, 0.0, 0.0, 0.0, 0.0, 0.0, 0.0, 0.0, 0.0]"
1606295385085116113,,88294,,1606295385,193745804,"""spatial""",,3.94156066895e-05,-2.13765975952e-05,2.12698638916e-05,"[0.0, 0.0, 0.0, 0.0, 0.0, 0.0, 0.0, 0.0, 0.0]"
1606295385119142403,,88295,,1606295385,226363677,"""spatial""",,3.84760406494e-05,-2.27451919556e-05,2.15135162354e-05,"[0.0, 0.0, 0.0, 0.0, 0.0, 0.0, 0.0, 0.0, 0.0]"
1606295385170533166,,88296,,1606295385,278724088,"""spatial""",,3.75989990234e-05,-2.39753372192e-05,2.18191879272e-05,"[0.0, 0.0, 0.0, 0.0, 0.0, 0.0, 0.0, 0.0, 0.0]"
1606295385224904625,,88297,,1606295385,333494673,"""spatial""",,3.67538635254e-05,-2.51080657959e-05,2.20584320068e-05,"[0.0, 0.0, 0.0, 0.0, 0.0, 0.0, 0.0, 0.0, 0.0]"
1606295385280987961,,88298,,1606295385,388798496,"""spatial""",,3.60381652832e-05,-2.58341308594e-05,2.23924575806e-05,"[0.0, 0.0, 0.0, 0.0, 0.0, 0.0, 0.0, 0.0, 0.0]"
1606295385331804520,,88299,,1606295385,425545370,"""spatial""",,3.57216125488e-05,-2.62279815674e-05,2.25186889648e-05,"[0.0, 0.0, 0.0, 0.0, 0.0, 0.0, 0.0, 0.0, 0.0]"
1606295385371314098,,88300,,1606295385,478954168,"""spatial""",,3.56685913086e-05,-2.61785400391e-05,2.25806488037e-05,"[0.0, 0.0, 0.0, 0.0, 0.0, 0.0, 0.0, 0.0, 0.0]"
1606295385427104044,,88301,,1606295385,533528416,"""spatial""",,3.59634399414e-05,-2.58654144287e-05,2.24916564941e-05,"[0.0, 0.0, 0.0, 0.0, 0.0, 0.0, 0.0, 0.0, 0.0]"
1606295385480902738,,88302,,1606295385,588975476,"""spatial""",,3.64747009277e-05,-2.51364654541e-05,2.24544677734e-05,"[0.0, 0.0, 0.0, 0.0, 0.0, 0.0, 0.0, 0.0, 0.0]"
1606295385519089662,,88303,,1606295385,625565337,"""spatial""",,3.73153808594e-05,-2.40296722412e-05,2.21432159424e-05,"[0.0, 0.0, 0.0, 0.0, 0.0, 0.0, 0.0, 0.0, 0.0]"
1606295385568135621,,88304,,1606295385,675288085,"""spatial""",,3.81593811035e-05,-2.28589141846e-05,2.19354187012e-05,"[0.0, 0.0, 0.0, 0.0, 0.0, 0.0, 0.0, 0.0, 0.0]"
1606295385619951256,,88305,,1606295385,728639058,"""spatial""",,3.90186676025e-05,-2.15212722778e-05,2.16060913086e-05,"[0.0, 0.0, 0.0, 0.0, 0.0, 0.0, 0.0, 0.0, 0.0]"
1606295385679310320,,88306,,1606295385,788154706,"""spatial""",,3.99197387695e-05,-2.00029693604e-05,2.12293609619e-05,"[0.0, 0.0, 0.0, 0.0, 0.0, 0.0, 0.0, 0.0, 0.0]"
1606295385734614109,,88307,,1606295385,834613729,"""spatial""",,4.09669281006e-05,-1.81115570068e-05,2.07094772339e-05,"[0.0, 0.0, 0.0, 0.0, 0.0, 0.0, 0.0, 0.0, 0.0]"
1606295385785385688,,88308,,1606295385,893410764,"""spatial""",,4.18839691162e-05,-1.58768920898e-05,2.01532394409e-05,"[0.0, 0.0, 0.0, 0.0, 0.0, 0.0, 0.0, 0.0, 0.0]"
1606295385820481935,,88309,,1606295385,926108876,"""spatial""",,4.26730102539e-05,-1.35073074341e-05,1.97170623779e-05,"[0.0, 0.0, 0.0, 0.0, 0.0, 0.0, 0.0, 0.0, 0.0]"
1606295385879848369,,88310,,1606295385,988346436,"""spatial""",,4.32786621094e-05,-1.11327178955e-05,1.94709228516e-05,"[0.0, 0.0, 0.0, 0.0, 0.0, 0.0, 0.0, 0.0, 0.0]"
1606295385917590001,,88311,,1606295386,25239809,"""spatial""",,4.35793640137e-05,-8.79214324951e-06,1.94641296387e-05,"[0.0, 0.0, 0.0, 0.0, 0.0, 0.0, 0.0, 0.0, 0.0]"
1606295385985592373,,88312,,1606295386,93496044,"""spatial""",,4.36927886963e-05,-6.0834312439e-06,1.96012802124e-05,"[0.0, 0.0, 0.0, 0.0, 0.0, 0.0, 0.0, 0.0, 0.0]"
1606295386017756515,,88313,,1606295386,126109093,"""spatial""",,4.35904724121e-05,-3.43439598083e-06,1.97893951416e-05,"[0.0, 0.0, 0.0, 0.0, 0.0, 0.0, 0.0, 0.0, 0.0]"
1606295386074653727,,88314,,1606295386,183782703,"""spatial""",,4.34011444092e-05,-9.02461242676e-07,1.99519836426e-05,"[0.0, 0.0, 0.0, 0.0, 0.0, 0.0, 0.0, 0.0, 0.0]"
1606295386125294167,,88315,,1606295386,233126514,"""spatial""",,4.29296508789e-05,1.56939468384e-06,2.02840911865e-05,"[0.0, 0.0, 0.0, 0.0, 0.0, 0.0, 0.0, 0.0, 0.0]"
1606295386179383952,,88316,,1606295386,288568974,"""spatial""",,4.23044677734e-05,3.82868499756e-06,2.08005615234e-05,"[0.0, 0.0, 0.0, 0.0, 0.0, 0.0, 0.0, 0.0, 0.0]"
1606295386217161641,,88317,,1606295386,325302298,"""spatial""",,4.15117980957e-05,6.0326789856e-06,2.12876876831e-05,"[0.0, 0.0, 0.0, 0.0, 0.0, 0.0, 0.0, 0.0, 0.0]"
1606295386270778609,,88318,,1606295386,379207946,"""spatial""",,4.06564788818e-05,8.05148773193e-06,2.18265609741e-05,"[0.0, 0.0, 0.0, 0.0, 0.0, 0.0, 0.0, 0.0, 0.0]"
1606295386319841225,,88319,,1606295386,428331382,"""spatial""",,3.98797302246e-05,9.65208282471e-06,2.23943740845e-05,"[0.0, 0.0, 0.0, 0.0, 0.0, 0.0, 0.0, 0.0, 0.0]"
1606295386380892340,,88320,,1606295386,488773529,"""spatial""",,3.89864685059e-05,1.10720977783e-05,2.29683578491e-05,"[0.0, 0.0, 0.0, 0.0, 0.0, 0.0, 0.0, 0.0, 0.0]"
1606295386422462551,,88321,,1606295386,525482090,"""spatial""",,3.8221975708e-05,1.23764083862e-05,2.34698028564e-05,"[0.0, 0.0, 0.0, 0.0, 0.0, 0.0, 0.0, 0.0, 0.0]"
1606295386475117664,,88322,,1606295386,583349551,"""spatial""",,3.74364257812e-05,1.3432762146e-05,2.40785873413e-05,"[0.0, 0.0, 0.0, 0.0, 0.0, 0.0, 0.0, 0.0, 0.0]"
1606295386522283310,,88323,,1606295386,628437699,"""spatial""",,3.67122131348e-05,1.44789535522e-05,2.44662063599e-05,"[0.0, 0.0, 0.0, 0.0, 0.0, 0.0, 0.0, 0.0, 0.0]"
1606295386581300377,,88324,,1606295386,684272422,"""spatial""",,3.583565979e-05,1.54041046143e-05,2.50479766846e-05,"[0.0, 0.0, 0.0, 0.0, 0.0, 0.0, 0.0, 0.0, 0.0]"
1606295386633919189,,88325,,1606295386,738719632,"""spatial""",,3.51515533447e-05,1.61669906616e-05,2.55497772217e-05,"[0.0, 0.0, 0.0, 0.0, 0.0, 0.0, 0.0, 0.0, 0.0]"
1606295386708197467,,88326,,1606295386,778444281,"""spatial""",,3.44593200684e-05,1.68538360596e-05,2.59640838623e-05,"[0.0, 0.0, 0.0, 0.0, 0.0, 0.0, 0.0, 0.0, 0.0]"
1606295387130800789,,88327,,1606295386,827372616,"""spatial""",,3.3838293457e-05,1.74128158569e-05,2.63778137207e-05,"[0.0, 0.0, 0.0, 0.0, 0.0, 0.0, 0.0, 0.0, 0.0]"
1606295387182871050,,88328,,1606295386,883524977,"""spatial""",,3.32253601074e-05,1.79760742188e-05,2.6854119873e-05,"[0.0, 0.0, 0.0, 0.0, 0.0, 0.0, 0.0, 0.0, 0.0]"
1606295387182882033,,88329,,1606295386,934309325,"""spatial""",,3.25955718994e-05,1.8443170166e-05,2.73148132324e-05,"[0.0, 0.0, 0.0, 0.0, 0.0, 0.0, 0.0, 0.0, 0.0]"
1606295387182886936,,88330,,1606295386,978596273,"""spatial""",,3.22583648682e-05,1.86672088623e-05,2.76099853516e-05,"[0.0, 0.0, 0.0, 0.0, 0.0, 0.0, 0.0, 0.0, 0.0]"
1606295387182902795,,88331,,1606295387,27373646,"""spatial""",,3.1918661499e-05,1.88460830688e-05,2.78479370117e-05,"[0.0, 0.0, 0.0, 0.0, 0.0, 0.0, 0.0, 0.0, 0.0]"
1606295387319687597,,88332,,1606295387,83760107,"""spatial""",,3.1900177002e-05,1.87537597656e-05,2.7942276001e-05,"[0.0, 0.0, 0.0, 0.0, 0.0, 0.0, 0.0, 0.0, 0.0]"
1606295387319697670,,88333,,1606295387,138058992,"""spatial""",,3.20759979248e-05,1.85455657959e-05,2.79032348633e-05,"[0.0, 0.0, 0.0, 0.0, 0.0, 0.0, 0.0, 0.0, 0.0]"
1606295387319713458,,88334,,1606295387,193952265,"""spatial""",,3.25768859863e-05,1.80609893799e-05,2.77847229004e-05,"[0.0, 0.0, 0.0, 0.0, 0.0, 0.0, 0.0, 0.0, 0.0]"
1606295387319720530,,88335,,1606295387,226623926,"""spatial""",,3.33382415771e-05,1.72310668945e-05,2.75246032715e-05,"[0.0, 0.0, 0.0, 0.0, 0.0, 0.0, 0.0, 0.0, 0.0]"
1606295387319730406,,88336,,1606295387,279191262,"""spatial""",,3.40254699707e-05,1.62543411255e-05,2.72468383789e-05,"[0.0, 0.0, 0.0, 0.0, 0.0, 0.0, 0.0, 0.0, 0.0]"
1606295387425466626,,88337,,1606295387,333683247,"""spatial""",,3.49028930664e-05,1.51939254761e-05,2.69751037598e-05,"[0.0, 0.0, 0.0, 0.0, 0.0, 0.0, 0.0, 0.0, 0.0]"
1606295387425479461,,88338,,1606295387,389067757,"""spatial""",,3.58303466797e-05,1.39849075317e-05,2.6511138916e-05,"[0.0, 0.0, 0.0, 0.0, 0.0, 0.0, 0.0, 0.0, 0.0]"
1606295387425492295,,88339,,1606295387,425489331,"""spatial""",,3.67377563477e-05,1.272915802e-05,2.61536407471e-05,"[0.0, 0.0, 0.0, 0.0, 0.0, 0.0, 0.0, 0.0, 0.0]"
1606295387488913134,,88340,,1606295387,478950229,"""spatial""",,3.76885681152e-05,1.12428245544e-05,2.57341491699e-05,"[0.0, 0.0, 0.0, 0.0, 0.0, 0.0, 0.0, 0.0, 0.0]"
1606295387488927004,,88341,,1606295387,533785177,"""spatial""",,3.85658843994e-05,9.72803344727e-06,2.50112747192e-05,"[0.0, 0.0, 0.0, 0.0, 0.0, 0.0, 0.0, 0.0, 0.0]"
1606295387514836002,,88342,,1606295387,593225325,"""spatial""",,3.94193634033e-05,8.29724655151e-06,2.441509552e-05,"[0.0, 0.0, 0.0, 0.0, 0.0, 0.0, 0.0, 0.0, 0.0]"
1606295387550687727,,88343,,1606295387,625698648,"""spatial""",,4.01882202148e-05,6.80484848022e-06,2.39719696045e-05,"[0.0, 0.0, 0.0, 0.0, 0.0, 0.0, 0.0, 0.0, 0.0]"
1606295387594561862,,88344,,1606295387,675066496,"""spatial""",,4.08384338379e-05,5.18291893005e-06,2.34955291748e-05,"[0.0, 0.0, 0.0, 0.0, 0.0, 0.0, 0.0, 0.0, 0.0]"
1606295387643423045,,88345,,1606295387,729042957,"""spatial""",,4.15378753662e-05,3.28824462891e-06,2.29327590942e-05,"[0.0, 0.0, 0.0, 0.0, 0.0, 0.0, 0.0, 0.0, 0.0]"
1606295387680477562,,88346,,1606295387,788415255,"""spatial""",,4.2151965332e-05,1.17012739182e-06,2.23858001709e-05,"[0.0, 0.0, 0.0, 0.0, 0.0, 0.0, 0.0, 0.0, 0.0]"
1606295387717172023,,88347,,1606295387,824896478,"""spatial""",,4.25233123779e-05,-6.95249080658e-07,2.19100891113e-05,"[0.0, 0.0, 0.0, 0.0, 0.0, 0.0, 0.0, 0.0, 0.0]"
1606295387790094780,,88348,,1606295387,893584488,"""spatial""",,4.27773681641e-05,-2.59739723206e-06,2.16965240479e-05,"[0.0, 0.0, 0.0, 0.0, 0.0, 0.0, 0.0, 0.0, 0.0]"
1606295387818084619,,88349,,1606295387,926225862,"""spatial""",,4.29953491211e-05,-4.40175514221e-06,2.16323181152e-05,"[0.0, 0.0, 0.0, 0.0, 0.0, 0.0, 0.0, 0.0, 0.0]"
1606295387891170241,,88350,,1606295387,988655960,"""spatial""",,4.29293395996e-05,-6.2092010498e-06,2.15635787964e-05,"[0.0, 0.0, 0.0, 0.0, 0.0, 0.0, 0.0, 0.0, 0.0]"
1606295387925141630,,88351,,1606295388,25574983,"""spatial""",,4.2806552124e-05,-8.09994125366e-06,2.16349273682e-05,"[0.0, 0.0, 0.0, 0.0, 0.0, 0.0, 0.0, 0.0, 0.0]"
1606295388008152634,,88352,,1606295388,93726606,"""spatial""",,4.24797973633e-05,-1.01131057739e-05,2.17077362061e-05,"[0.0, 0.0, 0.0, 0.0, 0.0, 0.0, 0.0, 0.0, 0.0]"
1606295388041420553,,88353,,1606295388,128294317,"""spatial""",,4.22207458496e-05,-1.17804321289e-05,2.18556686401e-05,"[0.0, 0.0, 0.0, 0.0, 0.0, 0.0, 0.0, 0.0, 0.0]"
1606295388077319709,,88354,,1606295388,184300452,"""spatial""",,4.1818862915e-05,-1.33317245483e-05,2.20230682373e-05,"[0.0, 0.0, 0.0, 0.0, 0.0, 0.0, 0.0, 0.0, 0.0]"
1606295388125480929,,88355,,1606295388,233383850,"""spatial""",,4.13044067383e-05,-1.47542144775e-05,2.21364700317e-05,"[0.0, 0.0, 0.0, 0.0, 0.0, 0.0, 0.0, 0.0, 0.0]"
1606295388181475595,,88356,,1606295388,288822798,"""spatial""",,4.07740539551e-05,-1.62029510498e-05,2.25008224487e-05,"[0.0, 0.0, 0.0, 0.0, 0.0, 0.0, 0.0, 0.0, 0.0]"
1606295388221677918,,88357,,1606295388,325400234,"""spatial""",,4.01653015137e-05,-1.73486206055e-05,2.29403121948e-05,"[0.0, 0.0, 0.0, 0.0, 0.0, 0.0, 0.0, 0.0, 0.0]"
1606295388274636073,,88358,,1606295388,383303757,"""spatial""",,3.96016296387e-05,-1.84496658325e-05,2.34511047363e-05,"[0.0, 0.0, 0.0, 0.0, 0.0, 0.0, 0.0, 0.0, 0.0]"
1606295388325079614,,88359,,1606295388,428494930,"""spatial""",,3.89678588867e-05,-1.92540298462e-05,2.39135986328e-05,"[0.0, 0.0, 0.0, 0.0, 0.0, 0.0, 0.0, 0.0, 0.0]"
1606295388383265139,,88360,,1606295388,489101803,"""spatial""",,3.84004211426e-05,-2.00099761963e-05,2.42725341797e-05,"[0.0, 0.0, 0.0, 0.0, 0.0, 0.0, 0.0, 0.0, 0.0]"
1606295388422240644,,88361,,1606295388,525716202,"""spatial""",,3.80059204102e-05,-2.05113311768e-05,2.46722396851e-05,"[0.0, 0.0, 0.0, 0.0, 0.0, 0.0, 0.0, 0.0, 0.0]"
1606295388484998034,,88362,,1606295388,583548687,"""spatial""",,3.76420501709e-05,-2.0911618042e-05,2.48459518433e-05,"[0.0, 0.0, 0.0, 0.0, 0.0, 0.0, 0.0, 0.0, 0.0]"
1606295388534140545,,88363,,1606295388,628858398,"""spatial""",,3.75580780029e-05,-2.10236053467e-05,2.49228103638e-05,"[0.0, 0.0, 0.0, 0.0, 0.0, 0.0, 0.0, 0.0, 0.0]"
1606295388600714983,,88364,,1606295388,688225058,"""spatial""",,3.75597167969e-05,-2.10548538208e-05,2.50879653931e-05,"[0.0, 0.0, 0.0, 0.0, 0.0, 0.0, 0.0, 0.0, 0.0]"
1606295388631172569,,88365,,1606295388,739055218,"""spatial""",,3.76448730469e-05,-2.08198852539e-05,2.51456665039e-05,"[0.0, 0.0, 0.0, 0.0, 0.0, 0.0, 0.0, 0.0, 0.0]"
1606295388670784428,,88366,,1606295388,779001279,"""spatial""",,3.79273803711e-05,-2.04169692993e-05,2.50432830811e-05,"[0.0, 0.0, 0.0, 0.0, 0.0, 0.0, 0.0, 0.0, 0.0]"
1606295388719217502,,88367,,1606295388,827481940,"""spatial""",,3.82710968018e-05,-1.9714743042e-05,2.48888580322e-05,"[0.0, 0.0, 0.0, 0.0, 0.0, 0.0, 0.0, 0.0, 0.0]"
1606295388775499237,,88368,,1606295388,883832100,"""spatial""",,3.87789123535e-05,-1.87930496216e-05,2.47700241089e-05,"[0.0, 0.0, 0.0, 0.0, 0.0, 0.0, 0.0, 0.0, 0.0]"
1606295388829707982,,88369,,1606295388,938151461,"""spatial""",,3.93869415283e-05,-1.75700057983e-05,2.44693847656e-05,"[0.0, 0.0, 0.0, 0.0, 0.0, 0.0, 0.0, 0.0, 0.0]"
1606295388871193787,,88370,,1606295388,978973172,"""spatial""",,4.0030279541e-05,-1.63236022949e-05,2.41246643066e-05,"[0.0, 0.0, 0.0, 0.0, 0.0, 0.0, 0.0, 0.0, 0.0]"
1606295388919134660,,88371,,1606295389,27672295,"""spatial""",,4.06457000732e-05,-1.48067596436e-05,2.37804412842e-05,"[0.0, 0.0, 0.0, 0.0, 0.0, 0.0, 0.0, 0.0, 0.0]"
1606295388977948755,,88372,,1606295389,84163180,"""spatial""",,4.11899169922e-05,-1.33373901367e-05,2.34011749268e-05,"[0.0, 0.0, 0.0, 0.0, 0.0, 0.0, 0.0, 0.0, 0.0]"
1606295389029766932,,88373,,1606295389,138445091,"""spatial""",,4.15985870361e-05,-1.16209571838e-05,2.31822799683e-05,"[0.0, 0.0, 0.0, 0.0, 0.0, 0.0, 0.0, 0.0, 0.0]"
1606295389067189153,,88374,,1606295389,174966552,"""spatial""",,4.2017767334e-05,-9.64198913574e-06,2.30013626099e-05,"[0.0, 0.0, 0.0, 0.0, 0.0, 0.0, 0.0, 0.0, 0.0]"
1606295389117744252,,88375,,1606295389,226780487,"""spatial""",,4.236796875e-05,-7.5048286438e-06,2.28048675537e-05,"[0.0, 0.0, 0.0, 0.0, 0.0, 0.0, 0.0, 0.0, 0.0]"
1606295389170639910,,88376,,1606295389,279263348,"""spatial""",,4.23648986816e-05,-5.6416343689e-06,2.28001068115e-05,"[0.0, 0.0, 0.0, 0.0, 0.0, 0.0, 0.0, 0.0, 0.0]"
1606295389226272616,,88377,,1606295389,333872808,"""spatial""",,4.24682220459e-05,-3.67019119263e-06,2.27451278687e-05,"[0.0, 0.0, 0.0, 0.0, 0.0, 0.0, 0.0, 0.0, 0.0]"
1606295389284700662,,88378,,1606295389,393265631,"""spatial""",,4.23776428223e-05,-1.60246067047e-06,2.25132919312e-05,"[0.0, 0.0, 0.0, 0.0, 0.0, 0.0, 0.0, 0.0, 0.0]"
1606295389318025872,,88379,,1606295389,425968230,"""spatial""",,4.2240032959e-05,4.76994132996e-07,2.24125854492e-05,"[0.0, 0.0, 0.0, 0.0, 0.0, 0.0, 0.0, 0.0, 0.0]"
1606295389377649287,,88380,,1606295389,483783502,"""spatial""",,4.19092529297e-05,2.56475028992e-06,2.24617919922e-05,"[0.0, 0.0, 0.0, 0.0, 0.0, 0.0, 0.0, 0.0, 0.0]"
1606295389438018582,,88381,,1606295389,534443263,"""spatial""",,4.13239624023e-05,4.6044216156e-06,2.25052658081e-05,"[0.0, 0.0, 0.0, 0.0, 0.0, 0.0, 0.0, 0.0, 0.0]"
1606295389491317827,,88382,,1606295389,593545298,"""spatial""",,4.08878997803e-05,6.25796203613e-06,2.25706481934e-05,"[0.0, 0.0, 0.0, 0.0, 0.0, 0.0, 0.0, 0.0, 0.0]"
1606295389548133007,,88383,,1606295389,626193460,"""spatial""",,4.03081848145e-05,7.85953292847e-06,2.27592559814e-05,"[0.0, 0.0, 0.0, 0.0, 0.0, 0.0, 0.0, 0.0, 0.0]"
1606295389654767756,,88384,,1606295389,678450783,"""spatial""",,3.95989990234e-05,9.31478500366e-06,2.32316650391e-05,"[0.0, 0.0, 0.0, 0.0, 0.0, 0.0, 0.0, 0.0, 0.0]"
1606295389913243264,,88385,,1606295389,729166681,"""spatial""",,3.88573730469e-05,1.05612159729e-05,2.36775085449e-05,"[0.0, 0.0, 0.0, 0.0, 0.0, 0.0, 0.0, 0.0, 0.0]"
1606295390149998576,,88386,,1606295389,788666466,"""spatial""",,3.8170892334e-05,1.17127662659e-05,2.41730026245e-05,"[0.0, 0.0, 0.0, 0.0, 0.0, 0.0, 0.0, 0.0, 0.0]"
1606295390150035738,,88387,,1606295389,825224239,"""spatial""",,3.74680633545e-05,1.26904067993e-05,2.46062789917e-05,"[0.0, 0.0, 0.0, 0.0, 0.0, 0.0, 0.0, 0.0, 0.0]"
1606295390150100841,,88388,,1606295389,893810987,"""spatial""",,3.69433258057e-05,1.3358807373e-05,2.50124389648e-05,"[0.0, 0.0, 0.0, 0.0, 0.0, 0.0, 0.0, 0.0, 0.0]"
1606295390150117132,,88389,,1606295389,928485398,"""spatial""",,3.65393798828e-05,1.38801925659e-05,2.5356817627e-05,"[0.0, 0.0, 0.0, 0.0, 0.0, 0.0, 0.0, 0.0, 0.0]"
1606295390150139941,,88390,,1606295389,988966071,"""spatial""",,3.61824523926e-05,1.44043991089e-05,2.55627655029e-05,"[0.0, 0.0, 0.0, 0.0, 0.0, 0.0, 0.0, 0.0, 0.0]"
1606295390280121754,,88391,,1606295390,25686307,"""spatial""",,3.58723999023e-05,1.47453170776e-05,2.57279846191e-05,"[0.0, 0.0, 0.0, 0.0, 0.0, 0.0, 0.0, 0.0, 0.0]"
1606295390280142913,,88392,,1606295390,94028829,"""spatial""",,3.55467803955e-05,1.5057220459e-05,2.59512084961e-05,"[0.0, 0.0, 0.0, 0.0, 0.0, 0.0, 0.0, 0.0, 0.0]"
1606295390280156207,,88393,,1606295390,128652715,"""spatial""",,3.53964904785e-05,1.51457183838e-05,2.61542602539e-05,"[0.0, 0.0, 0.0, 0.0, 0.0, 0.0, 0.0, 0.0, 0.0]"
1606295390280164786,,88394,,1606295390,184410463,"""spatial""",,3.52451965332e-05,1.53340393066e-05,2.61428527832e-05,"[0.0, 0.0, 0.0, 0.0, 0.0, 0.0, 0.0, 0.0, 0.0]"
1606295390280196956,,88395,,1606295390,233616936,"""spatial""",,3.52931304932e-05,1.53084838867e-05,2.62468322754e-05,"[0.0, 0.0, 0.0, 0.0, 0.0, 0.0, 0.0, 0.0, 0.0]"
1606295390325088782,,88396,,1606295390,289133434,"""spatial""",,3.53613983154e-05,1.51870941162e-05,2.61854187012e-05,"[0.0, 0.0, 0.0, 0.0, 0.0, 0.0, 0.0, 0.0, 0.0]"
1606295390325104823,,88397,,1606295390,325774645,"""spatial""",,3.55914489746e-05,1.49499664307e-05,2.60466003418e-05,"[0.0, 0.0, 0.0, 0.0, 0.0, 0.0, 0.0, 0.0, 0.0]"
1606295390325109250,,88398,,1606295390,383640331,"""spatial""",,3.59198486328e-05,1.46223358154e-05,2.57057647705e-05,"[0.0, 0.0, 0.0, 0.0, 0.0, 0.0, 0.0, 0.0, 0.0]"
1606295390410197657,,88399,,1606295390,428921429,"""spatial""",,3.64430725098e-05,1.42215393066e-05,2.53227859497e-05,"[0.0, 0.0, 0.0, 0.0, 0.0, 0.0, 0.0, 0.0, 0.0]"
1606295390477707163,,88400,,1606295390,493759439,"""spatial""",,3.68595031738e-05,1.36234848022e-05,2.49197128296e-05,"[0.0, 0.0, 0.0, 0.0, 0.0, 0.0, 0.0, 0.0, 0.0]"
1606295390477718430,,88401,,1606295390,525828313,"""spatial""",,3.73658996582e-05,1.29930328369e-05,2.4600604248e-05,"[0.0, 0.0, 0.0, 0.0, 0.0, 0.0, 0.0, 0.0, 0.0]"
1606295390513398425,,88402,,1606295390,583775723,"""spatial""",,3.78458282471e-05,1.22639205933e-05,2.44735992432e-05,"[0.0, 0.0, 0.0, 0.0, 0.0, 0.0, 0.0, 0.0, 0.0]"
1606295390583693392,,88403,,1606295390,628922071,"""spatial""",,3.82488464355e-05,1.14032325745e-05,2.4409564209e-05,"[0.0, 0.0, 0.0, 0.0, 0.0, 0.0, 0.0, 0.0, 0.0]"
1606295390705764428,,88404,,1606295390,688588319,"""spatial""",,3.84998535156e-05,1.06899871826e-05,2.44707885742e-05,"[0.0, 0.0, 0.0, 0.0, 0.0, 0.0, 0.0, 0.0, 0.0]"
1606295390739309183,,88405,,1606295390,724912793,"""spatial""",,3.87637695312e-05,1.02319313049e-05,2.43574768066e-05,"[0.0, 0.0, 0.0, 0.0, 0.0, 0.0, 0.0, 0.0, 0.0]"
1606295390739318883,,88406,,1606295390,778911016,"""spatial""",,3.88871704102e-05,9.95935974121e-06,2.43622207642e-05,"[0.0, 0.0, 0.0, 0.0, 0.0, 0.0, 0.0, 0.0, 0.0]"
1606295390781026370,,88407,,1606295390,827770314,"""spatial""",,3.89963684082e-05,9.86440734863e-06,2.42266983032e-05,"[0.0, 0.0, 0.0, 0.0, 0.0, 0.0, 0.0, 0.0, 0.0]"
1606295390872947783,,88408,,1606295390,884153862,"""spatial""",,3.88396179199e-05,1.00557479858e-05,2.43753616333e-05,"[0.0, 0.0, 0.0, 0.0, 0.0, 0.0, 0.0, 0.0, 0.0]"
1606295391187809195,,88409,,1606295390,938617284,"""spatial""",,3.87017150879e-05,1.01734817505e-05,2.45553253174e-05,"[0.0, 0.0, 0.0, 0.0, 0.0, 0.0, 0.0, 0.0, 0.0]"
1606295391187819722,,88410,,1606295390,979148208,"""spatial""",,3.84688476562e-05,1.03958679199e-05,2.47037139893e-05,"[0.0, 0.0, 0.0, 0.0, 0.0, 0.0, 0.0, 0.0, 0.0]"
1606295391415146930,,88411,,1606295391,28299606,"""spatial""",,3.83134399414e-05,1.07269973755e-05,2.47756637573e-05,"[0.0, 0.0, 0.0, 0.0, 0.0, 0.0, 0.0, 0.0, 0.0]"
1606295391415177313,,88412,,1606295391,84172016,"""spatial""",,3.81134735107e-05,1.09101051331e-05,2.50038024902e-05,"[0.0, 0.0, 0.0, 0.0, 0.0, 0.0, 0.0, 0.0, 0.0]"
1606295391415183661,,88413,,1606295391,138567852,"""spatial""",,3.78898376465e-05,1.10814376831e-05,2.52166992187e-05,"[0.0, 0.0, 0.0, 0.0, 0.0, 0.0, 0.0, 0.0, 0.0]"
1606295391415190424,,88414,,1606295391,175172438,"""spatial""",,3.76487365723e-05,1.12797546387e-05,2.53281829834e-05,"[0.0, 0.0, 0.0, 0.0, 0.0, 0.0, 0.0, 0.0, 0.0]"
1606295391415205285,,88415,,1606295391,227010048,"""spatial""",,3.75171112061e-05,1.14415023804e-05,2.54922119141e-05,"[0.0, 0.0, 0.0, 0.0, 0.0, 0.0, 0.0, 0.0, 0.0]"
1606295391415212239,,88416,,1606295391,283566009,"""spatial""",,3.74184906006e-05,1.14818435669e-05,2.57256896973e-05,"[0.0, 0.0, 0.0, 0.0, 0.0, 0.0, 0.0, 0.0, 0.0]"
1606295391505034057,,88417,,1606295391,334164519,"""spatial""",,3.73586029053e-05,1.14940361023e-05,2.57761474609e-05,"[0.0, 0.0, 0.0, 0.0, 0.0, 0.0, 0.0, 0.0, 0.0]"
1606295391505049426,,88418,,1606295391,393819767,"""spatial""",,3.72365570068e-05,1.14562568665e-05,2.60225036621e-05,"[0.0, 0.0, 0.0, 0.0, 0.0, 0.0, 0.0, 0.0, 0.0]"
1606295391505056832,,88419,,1606295391,426222291,"""spatial""",,3.7056048584e-05,1.14557617188e-05,2.62119750977e-05,"[0.0, 0.0, 0.0, 0.0, 0.0, 0.0, 0.0, 0.0, 0.0]"
1606295391505070739,,88420,,1606295391,483582351,"""spatial""",,3.68003082275e-05,1.16537399292e-05,2.65323913574e-05,"[0.0, 0.0, 0.0, 0.0, 0.0, 0.0, 0.0, 0.0, 0.0]"
1606295391505077215,,88421,,1606295391,534255862,"""spatial""",,3.65267822266e-05,1.18954879761e-05,2.67751464844e-05,"[0.0, 0.0, 0.0, 0.0, 0.0, 0.0, 0.0, 0.0, 0.0]"
1606295391588836307,,88422,,1606295391,593777197,"""spatial""",,3.63724029541e-05,1.2006162262e-05,2.68732269287e-05,"[0.0, 0.0, 0.0, 0.0, 0.0, 0.0, 0.0, 0.0, 0.0]"
1606295391635360134,,88423,,1606295391,626370896,"""spatial""",,3.61780914307e-05,1.21656799316e-05,2.69847198486e-05,"[0.0, 0.0, 0.0, 0.0, 0.0, 0.0, 0.0, 0.0, 0.0]"
1606295391635372013,,88424,,1606295391,678695494,"""spatial""",,3.60492279053e-05,1.22858467102e-05,2.71193817139e-05,"[0.0, 0.0, 0.0, 0.0, 0.0, 0.0, 0.0, 0.0, 0.0]"
1606295391706245238,,88425,,1606295391,733364392,"""spatial""",,3.59521118164e-05,1.24747947693e-05,2.71561096191e-05,"[0.0, 0.0, 0.0, 0.0, 0.0, 0.0, 0.0, 0.0, 0.0]"
1606295391754869385,,88426,,1606295391,788983152,"""spatial""",,3.57834716797e-05,1.25959327698e-05,2.72252227783e-05,"[0.0, 0.0, 0.0, 0.0, 0.0, 0.0, 0.0, 0.0, 0.0]"
1606295391808863901,,88427,,1606295391,825659301,"""spatial""",,3.56859069824e-05,1.28340087891e-05,2.73342987061e-05,"[0.0, 0.0, 0.0, 0.0, 0.0, 0.0, 0.0, 0.0, 0.0]"
1606295391844762172,,88428,,1606295391,894108398,"""spatial""",,3.56223175049e-05,1.29194992065e-05,2.73696777344e-05,"[0.0, 0.0, 0.0, 0.0, 0.0, 0.0, 0.0, 0.0, 0.0]"
1606295391916234619,,88429,,1606295391,928520397,"""spatial""",,3.55139068604e-05,1.30128692627e-05,2.73635070801e-05,"[0.0, 0.0, 0.0, 0.0, 0.0, 0.0, 0.0, 0.0, 0.0]"
1606295391957716421,,88430,,1606295391,989116432,"""spatial""",,3.55252807617e-05,1.30068481445e-05,2.74187469482e-05,"[0.0, 0.0, 0.0, 0.0, 0.0, 0.0, 0.0, 0.0, 0.0]"
1606295391957725394,,88431,,1606295392,25715481,"""spatial""",,3.54943054199e-05,1.30345474243e-05,2.74378631592e-05,"[0.0, 0.0, 0.0, 0.0, 0.0, 0.0, 0.0, 0.0, 0.0]"
1606295392104616811,,88432,,1606295392,94295778,"""spatial""",,3.54815673828e-05,1.2956362915e-05,2.7381817627e-05,"[0.0, 0.0, 0.0, 0.0, 0.0, 0.0, 0.0, 0.0, 0.0]"
1606295392159310503,,88433,,1606295392,128818739,"""spatial""",,3.55365234375e-05,1.28582778931e-05,2.73627258301e-05,"[0.0, 0.0, 0.0, 0.0, 0.0, 0.0, 0.0, 0.0, 0.0]"
1606295392159319940,,88434,,1606295392,184639287,"""spatial""",,3.55881958008e-05,1.30128112793e-05,2.73524169922e-05,"[0.0, 0.0, 0.0, 0.0, 0.0, 0.0, 0.0, 0.0, 0.0]"
1606295392232236081,,88435,,1606295392,233948273,"""spatial""",,3.54899169922e-05,1.31348739624e-05,2.74121856689e-05,"[0.0, 0.0, 0.0, 0.0, 0.0, 0.0, 0.0, 0.0, 0.0]"
1606295392261784488,,88436,,1606295392,293562270,"""spatial""",,3.53941192627e-05,1.32625244141e-05,2.72882385254e-05,"[0.0, 0.0, 0.0, 0.0, 0.0, 0.0, 0.0, 0.0, 0.0]"
1606295392261789752,,88437,,1606295392,325974344,"""spatial""",,3.5496697998e-05,1.33894332886e-05,2.71036834717e-05,"[0.0, 0.0, 0.0, 0.0, 0.0, 0.0, 0.0, 0.0, 0.0]"
1606295392314229598,,88438,,1606295392,383941679,"""spatial""",,3.55105682373e-05,1.32873016357e-05,2.71136749268e-05,"[0.0, 0.0, 0.0, 0.0, 0.0, 0.0, 0.0, 0.0, 0.0]"
1606295392343871314,,88439,,1606295392,429047453,"""spatial""",,3.56524414063e-05,1.31361450195e-05,2.7009487915e-05,"[0.0, 0.0, 0.0, 0.0, 0.0, 0.0, 0.0, 0.0, 0.0]"
1606295392399189010,,88440,,1606295392,493551938,"""spatial""",,3.58041107178e-05,1.30092437744e-05,2.68567901611e-05,"[0.0, 0.0, 0.0, 0.0, 0.0, 0.0, 0.0, 0.0, 0.0]"
1606295392417448565,,88441,,1606295392,526196749,"""spatial""",,3.59599884033e-05,1.29063934326e-05,2.66583068848e-05,"[0.0, 0.0, 0.0, 0.0, 0.0, 0.0, 0.0, 0.0, 0.0]"
1606295392476025590,,88442,,1606295392,584087934,"""spatial""",,3.60762207031e-05,1.28706054688e-05,2.6457220459e-05,"[0.0, 0.0, 0.0, 0.0, 0.0, 0.0, 0.0, 0.0, 0.0]"
1606295392520896658,,88443,,1606295392,629287207,"""spatial""",,3.62045501709e-05,1.29512451172e-05,2.61953918457e-05,"[0.0, 0.0, 0.0, 0.0, 0.0, 0.0, 0.0, 0.0, 0.0]"
1606295392599021169,,88444,,1606295392,688770518,"""spatial""",,3.64423309326e-05,1.29543212891e-05,2.59203552246e-05,"[0.0, 0.0, 0.0, 0.0, 0.0, 0.0, 0.0, 0.0, 0.0]"
1606295392617382349,,88445,,1606295392,725453979,"""spatial""",,3.65840576172e-05,1.28545196533e-05,2.56691558838e-05,"[0.0, 0.0, 0.0, 0.0, 0.0, 0.0, 0.0, 0.0, 0.0]"
1606295392671801230,,88446,,1606295392,779197889,"""spatial""",,3.6802911377e-05,1.27275642395e-05,2.54803405762e-05,"[0.0, 0.0, 0.0, 0.0, 0.0, 0.0, 0.0, 0.0, 0.0]"
1606295392719950120,,88447,,1606295392,828342750,"""spatial""",,3.69839630127e-05,1.24174949646e-05,2.51997711182e-05,"[0.0, 0.0, 0.0, 0.0, 0.0, 0.0, 0.0, 0.0, 0.0]"
1606295392827790947,,88448,,1606295392,884326823,"""spatial""",,3.74675415039e-05,1.20956085205e-05,2.47333084106e-05,"[0.0, 0.0, 0.0, 0.0, 0.0, 0.0, 0.0, 0.0, 0.0]"
1606295392859689486,,88449,,1606295392,938858283,"""spatial""",,3.78060302734e-05,1.20229721069e-05,2.42202087402e-05,"[0.0, 0.0, 0.0, 0.0, 0.0, 0.0, 0.0, 0.0, 0.0]"
1606295392878089335,,88450,,1606295392,979495207,"""spatial""",,3.80244567871e-05,1.19128585815e-05,2.38459350586e-05,"[0.0, 0.0, 0.0, 0.0, 0.0, 0.0, 0.0, 0.0, 0.0]"
1606295392920059817,,88451,,1606295393,28624780,"""spatial""",,3.83065917969e-05,1.18113830566e-05,2.35103393555e-05,"[0.0, 0.0, 0.0, 0.0, 0.0, 0.0, 0.0, 0.0, 0.0]"
1606295392978084685,,88452,,1606295393,84440965,"""spatial""",,3.84167419434e-05,1.17094146729e-05,2.32324127197e-05,"[0.0, 0.0, 0.0, 0.0, 0.0, 0.0, 0.0, 0.0, 0.0]"
1606295393030157490,,88453,,1606295393,138866876,"""spatial""",,3.85312591553e-05,1.17795822144e-05,2.30040817261e-05,"[0.0, 0.0, 0.0, 0.0, 0.0, 0.0, 0.0, 0.0, 0.0]"
1606295393070176132,,88454,,1606295393,178576012,"""spatial""",,3.86181549072e-05,1.1681350708e-05,2.28926757813e-05,"[0.0, 0.0, 0.0, 0.0, 0.0, 0.0, 0.0, 0.0, 0.0]"
1606295393118000028,,88455,,1606295393,227502447,"""spatial""",,3.86814849854e-05,1.15636253357e-05,2.26930160522e-05,"[0.0, 0.0, 0.0, 0.0, 0.0, 0.0, 0.0, 0.0, 0.0]"
1606295393177396129,,88456,,1606295393,285361682,"""spatial""",,3.9009387207e-05,1.14683166504e-05,2.23701141357e-05,"[0.0, 0.0, 0.0, 0.0, 0.0, 0.0, 0.0, 0.0, 0.0]"
1606295393224692062,,88457,,1606295393,334385531,"""spatial""",,3.91890167236e-05,1.1558416748e-05,2.19063812256e-05,"[0.0, 0.0, 0.0, 0.0, 0.0, 0.0, 0.0, 0.0, 0.0]"
1606295393284564060,,88458,,1606295393,393907866,"""spatial""",,3.92623291016e-05,1.1755078125e-05,2.15564971924e-05,"[0.0, 0.0, 0.0, 0.0, 0.0, 0.0, 0.0, 0.0, 0.0]"
1606295393317935988,,88459,,1606295393,426539302,"""spatial""",,3.92278259277e-05,1.2210395813e-05,2.1127696228e-05,"[0.0, 0.0, 0.0, 0.0, 0.0, 0.0, 0.0, 0.0, 0.0]"
1606295393377039285,,88460,,1606295393,483878687,"""spatial""",,3.9231463623e-05,1.23947105408e-05,2.07647567749e-05,"[0.0, 0.0, 0.0, 0.0, 0.0, 0.0, 0.0, 0.0, 0.0]"
1606295393426611735,,88461,,1606295393,534595573,"""spatial""",,3.94197753906e-05,1.24545310974e-05,2.04297927856e-05,"[0.0, 0.0, 0.0, 0.0, 0.0, 0.0, 0.0, 0.0, 0.0]"
1606295393531418197,,88462,,1606295393,594129571,"""spatial""",,3.96780456543e-05,1.20408973694e-05,2.02359130859e-05,"[0.0, 0.0, 0.0, 0.0, 0.0, 0.0, 0.0, 0.0, 0.0]"
1606295393567508951,,88463,,1606295393,626722407,"""spatial""",,3.99557434082e-05,1.15497413635e-05,2.01989883423e-05,"[0.0, 0.0, 0.0, 0.0, 0.0, 0.0, 0.0, 0.0, 0.0]"
1606295393581316384,,88464,,1606295393,679242730,"""spatial""",,4.01937225342e-05,1.08936264038e-05,2.01544494629e-05,"[0.0, 0.0, 0.0, 0.0, 0.0, 0.0, 0.0, 0.0, 0.0]"
1606295393626621815,,88465,,1606295393,733687640,"""spatial""",,4.0276348877e-05,1.04815093994e-05,2.03493408203e-05,"[0.0, 0.0, 0.0, 0.0, 0.0, 0.0, 0.0, 0.0, 0.0]"
1606295393681112988,,88466,,1606295393,789154213,"""spatial""",,4.02315155029e-05,1.014243927e-05,2.06708633423e-05,"[0.0, 0.0, 0.0, 0.0, 0.0, 0.0, 0.0, 0.0, 0.0]"
1606295393720483411,,88467,,1606295393,825812962,"""spatial""",,4.0301348877e-05,9.99251708984e-06,2.07749603271e-05,"[0.0, 0.0, 0.0, 0.0, 0.0, 0.0, 0.0, 0.0, 0.0]"
1606295393787506931,,88468,,1606295393,894386609,"""spatial""",,4.02628326416e-05,9.85974731445e-06,2.07858474731e-05,"[0.0, 0.0, 0.0, 0.0, 0.0, 0.0, 0.0, 0.0, 0.0]"
1606295393822357467,,88469,,1606295393,928954483,"""spatial""",,4.03269287109e-05,9.71506729126e-06,2.08933868408e-05,"[0.0, 0.0, 0.0, 0.0, 0.0, 0.0, 0.0, 0.0, 0.0]"
1606295393881100972,,88470,,1606295393,989388043,"""spatial""",,4.0347467041e-05,9.49534683228e-06,2.10973419189e-05,"[0.0, 0.0, 0.0, 0.0, 0.0, 0.0, 0.0, 0.0, 0.0]"
1606295393917370416,,88471,,1606295394,26001067,"""spatial""",,4.03457794189e-05,9.27976379395e-06,2.13073287964e-05,"[0.0, 0.0, 0.0, 0.0, 0.0, 0.0, 0.0, 0.0, 0.0]"
1606295393967609418,,88472,,1606295394,75370040,"""spatial""",,4.03306976318e-05,9.13555908203e-06,2.14749588013e-05,"[0.0, 0.0, 0.0, 0.0, 0.0, 0.0, 0.0, 0.0, 0.0]"
1606295394032513969,,88473,,1606295394,129231375,"""spatial""",,4.02152252197e-05,9.05209197998e-06,2.16571624756e-05,"[0.0, 0.0, 0.0, 0.0, 0.0, 0.0, 0.0, 0.0, 0.0]"
1606295394080277213,,88474,,1606295394,188466423,"""spatial""",,4.01812133789e-05,8.85521850586e-06,2.19089935303e-05,"[0.0, 0.0, 0.0, 0.0, 0.0, 0.0, 0.0, 0.0, 0.0]"
1606295394129627691,,88475,,1606295394,234145771,"""spatial""",,4.01604431152e-05,8.75731582642e-06,2.21452148437e-05,"[0.0, 0.0, 0.0, 0.0, 0.0, 0.0, 0.0, 0.0, 0.0]"
1606295394191489131,,88476,,1606295394,293662069,"""spatial""",,4.00182830811e-05,8.66659088135e-06,2.24159759521e-05,"[0.0, 0.0, 0.0, 0.0, 0.0, 0.0, 0.0, 0.0, 0.0]"
1606295394263068534,,88477,,1606295394,326226705,"""spatial""",,3.9984564209e-05,8.58802947998e-06,2.25389511108e-05,"[0.0, 0.0, 0.0, 0.0, 0.0, 0.0, 0.0, 0.0, 0.0]"
1606295394298277322,,88478,,1606295394,384104178,"""spatial""",,4.00102142334e-05,8.48319702148e-06,2.26926376343e-05,"[0.0, 0.0, 0.0, 0.0, 0.0, 0.0, 0.0, 0.0, 0.0]"
1606295394320240880,,88479,,1606295394,429329201,"""spatial""",,4.00120697021e-05,8.41218719482e-06,2.26863800049e-05,"[0.0, 0.0, 0.0, 0.0, 0.0, 0.0, 0.0, 0.0, 0.0]"
1606295394384954694,,88480,,1606295394,493851224,"""spatial""",,3.99612701416e-05,8.29482650757e-06,2.28819732666e-05,"[0.0, 0.0, 0.0, 0.0, 0.0, 0.0, 0.0, 0.0, 0.0]"
1606295394418432365,,88481,,1606295394,526534173,"""spatial""",,3.99829101562e-05,8.11578216553e-06,2.29406433105e-05,"[0.0, 0.0, 0.0, 0.0, 0.0, 0.0, 0.0, 0.0, 0.0]"
1606295394476172190,,88482,,1606295394,584458283,"""spatial""",,3.99941986084e-05,8.16665649414e-06,2.30311279297e-05,"[0.0, 0.0, 0.0, 0.0, 0.0, 0.0, 0.0, 0.0, 0.0]"
1606295394523891924,,88483,,1606295394,633488081,"""spatial""",,3.99236816406e-05,8.13434448242e-06,2.30350585937e-05,"[0.0, 0.0, 0.0, 0.0, 0.0, 0.0, 0.0, 0.0, 0.0]"
1606295394580242018,,88484,,1606295394,688983366,"""spatial""",,3.9886505127e-05,8.22351913452e-06,2.32139785767e-05,"[0.0, 0.0, 0.0, 0.0, 0.0, 0.0, 0.0, 0.0, 0.0]"
1606295394617238132,,88485,,1606295394,725608790,"""spatial""",,3.98639587402e-05,8.24369812012e-06,2.31569000244e-05,"[0.0, 0.0, 0.0, 0.0, 0.0, 0.0, 0.0, 0.0, 0.0]"
1606295394678448085,,88486,,1606295394,779466338,"""spatial""",,3.98190856934e-05,8.34536972046e-06,2.31561325073e-05,"[0.0, 0.0, 0.0, 0.0, 0.0, 0.0, 0.0, 0.0, 0.0]"
1606295394721237232,,88487,,1606295394,828664849,"""spatial""",,3.97531555176e-05,8.48129119873e-06,2.31943847656e-05,"[0.0, 0.0, 0.0, 0.0, 0.0, 0.0, 0.0, 0.0, 0.0]"
1606295394775491085,,88488,,1606295394,884583859,"""spatial""",,3.97362731934e-05,8.42393798828e-06,2.32965408325e-05,"[0.0, 0.0, 0.0, 0.0, 0.0, 0.0, 0.0, 0.0, 0.0]"
1606295394833766995,,88489,,1606295394,938933944,"""spatial""",,3.96857543945e-05,8.53792114258e-06,2.32687759399e-05,"[0.0, 0.0, 0.0, 0.0, 0.0, 0.0, 0.0, 0.0, 0.0]"
1606295394875632206,,88490,,1606295394,983704993,"""spatial""",,3.96354187012e-05,8.55516891479e-06,2.3348147583e-05,"[0.0, 0.0, 0.0, 0.0, 0.0, 0.0, 0.0, 0.0, 0.0]"
1606295394921587647,,88491,,1606295395,28991541,"""spatial""",,3.97211486816e-05,8.60516738892e-06,2.33622161865e-05,"[0.0, 0.0, 0.0, 0.0, 0.0, 0.0, 0.0, 0.0, 0.0]"
1606295394976622862,,88492,,1606295395,84780476,"""spatial""",,3.96616577148e-05,8.50132522583e-06,2.34624969482e-05,"[0.0, 0.0, 0.0, 0.0, 0.0, 0.0, 0.0, 0.0, 0.0]"
1606295395031906481,,88493,,1606295395,139108787,"""spatial""",,3.96773193359e-05,8.39547576904e-06,2.3470866394e-05,"[0.0, 0.0, 0.0, 0.0, 0.0, 0.0, 0.0, 0.0, 0.0]"
1606295395069704235,,88494,,1606295395,179011123,"""spatial""",,3.98426086426e-05,8.1488494873e-06,2.33799560547e-05,"[0.0, 0.0, 0.0, 0.0, 0.0, 0.0, 0.0, 0.0, 0.0]"
1606295395119855399,,88495,,1606295395,227560858,"""spatial""",,3.99498321533e-05,7.90333786011e-06,2.3365826416e-05,"[0.0, 0.0, 0.0, 0.0, 0.0, 0.0, 0.0, 0.0, 0.0]"
1606295395185046470,,88496,,1606295395,284219094,"""spatial""",,3.99821350098e-05,7.6457611084e-06,2.33211456299e-05,"[0.0, 0.0, 0.0, 0.0, 0.0, 0.0, 0.0, 0.0, 0.0]"
1606295395225423887,,88497,,1606295395,334674404,"""spatial""",,4.00650238037e-05,7.38104476929e-06,2.32735198975e-05,"[0.0, 0.0, 0.0, 0.0, 0.0, 0.0, 0.0, 0.0, 0.0]"
1606295395285731086,,88498,,1606295395,394182665,"""spatial""",,4.01351135254e-05,7.26191635132e-06,2.33312683105e-05,"[0.0, 0.0, 0.0, 0.0, 0.0, 0.0, 0.0, 0.0, 0.0]"
1606295395317767307,,88499,,1606295395,426898876,"""spatial""",,4.01501464844e-05,7.35717163086e-06,2.33140350342e-05,"[0.0, 0.0, 0.0, 0.0, 0.0, 0.0, 0.0, 0.0, 0.0]"
1606295395376380718,,88500,,1606295395,484362399,"""spatial""",,4.00901794434e-05,7.53287353516e-06,2.34077651978e-05,"[0.0, 0.0, 0.0, 0.0, 0.0, 0.0, 0.0, 0.0, 0.0]"
1606295395426659799,,88501,,1606295395,534896672,"""spatial""",,4.01141662598e-05,7.49641494751e-06,2.32535491943e-05,"[0.0, 0.0, 0.0, 0.0, 0.0, 0.0, 0.0, 0.0, 0.0]"
1606295395487480559,,88502,,1606295395,594307094,"""spatial""",,4.03377624512e-05,7.31673965454e-06,2.29214019775e-05,"[0.0, 0.0, 0.0, 0.0, 0.0, 0.0, 0.0, 0.0, 0.0]"
1606295395520645991,,88503,,1606295395,626970743,"""spatial""",,4.06182067871e-05,7.1800567627e-06,2.25176467896e-05,"[0.0, 0.0, 0.0, 0.0, 0.0, 0.0, 0.0, 0.0, 0.0]"
1606295395574296077,,88504,,1606295395,679270391,"""spatial""",,4.08135925293e-05,6.93231048584e-06,2.23021865845e-05,"[0.0, 0.0, 0.0, 0.0, 0.0, 0.0, 0.0, 0.0, 0.0]"
1606295395625658045,,88505,,1606295395,733923989,"""spatial""",,4.10328155518e-05,6.58254852295e-06,2.20314712524e-05,"[0.0, 0.0, 0.0, 0.0, 0.0, 0.0, 0.0, 0.0, 0.0]"
1606295395680508619,,88506,,1606295395,789384374,"""spatial""",,4.11966491699e-05,6.23080482483e-06,2.18403564453e-05,"[0.0, 0.0, 0.0, 0.0, 0.0, 0.0, 0.0, 0.0, 0.0]"
1606295395718161125,,88507,,1606295395,826061211,"""spatial""",,4.14370941162e-05,5.78259963989e-06,2.1621774292e-05,"[0.0, 0.0, 0.0, 0.0, 0.0, 0.0, 0.0, 0.0, 0.0]"
1606295395773903492,,88508,,1606295395,875528021,"""spatial""",,4.16362762451e-05,5.30963554382e-06,2.15710357666e-05,"[0.0, 0.0, 0.0, 0.0, 0.0, 0.0, 0.0, 0.0, 0.0]"
1606295395821360229,,88509,,1606295395,929445419,"""spatial""",,4.16682830811e-05,5.02330551147e-06,2.14855957031e-05,"[0.0, 0.0, 0.0, 0.0, 0.0, 0.0, 0.0, 0.0, 0.0]"
1606295395885616697,,88510,,1606295395,993656642,"""spatial""",,4.17864562988e-05,4.7677822113e-06,2.15384552002e-05,"[0.0, 0.0, 0.0, 0.0, 0.0, 0.0, 0.0, 0.0, 0.0]"
1606295395918474869,,88511,,1606295396,26251553,"""spatial""",,4.18225067139e-05,4.615284729e-06,2.15418029785e-05,"[0.0, 0.0, 0.0, 0.0, 0.0, 0.0, 0.0, 0.0, 0.0]"
1606295395968511292,,88512,,1606295396,75531601,"""spatial""",,4.17983428955e-05,4.64838981628e-06,2.17017150879e-05,"[0.0, 0.0, 0.0, 0.0, 0.0, 0.0, 0.0, 0.0, 0.0]"
1606295396021765613,,88513,,1606295396,129321661,"""spatial""",,4.17194641113e-05,4.78960647583e-06,2.1671005249e-05,"[0.0, 0.0, 0.0, 0.0, 0.0, 0.0, 0.0, 0.0, 0.0]"
1606295396080500149,,88514,,1606295396,188758422,"""spatial""",,4.18073547363e-05,5.07133636475e-06,2.15307937622e-05,"[0.0, 0.0, 0.0, 0.0, 0.0, 0.0, 0.0, 0.0, 0.0]"
1606295396116828588,,88515,,1606295396,225362570,"""spatial""",,4.19174377441e-05,5.17076683044e-06,2.12765594482e-05,"[0.0, 0.0, 0.0, 0.0, 0.0, 0.0, 0.0, 0.0, 0.0]"
1606295396184661952,,88516,,1606295396,293997180,"""spatial""",,4.21525787354e-05,4.95410003662e-06,2.10736862183e-05,"[0.0, 0.0, 0.0, 0.0, 0.0, 0.0, 0.0, 0.0, 0.0]"
1606295396216963264,,88517,,1606295396,326573641,"""spatial""",,4.23567382812e-05,4.81856384277e-06,2.08379608154e-05,"[0.0, 0.0, 0.0, 0.0, 0.0, 0.0, 0.0, 0.0, 0.0]"
1606295396277924822,,88518,,1606295396,384468139,"""spatial""",,4.2461807251e-05,4.82759017944e-06,2.06317245483e-05,"[0.0, 0.0, 0.0, 0.0, 0.0, 0.0, 0.0, 0.0, 0.0]"
1606295396324398938,,88519,,1606295396,433568337,"""spatial""",,4.25870635986e-05,5.0898109436e-06,2.06338348389e-05,"[0.0, 0.0, 0.0, 0.0, 0.0, 0.0, 0.0, 0.0, 0.0]"
1606295396386568173,,88520,,1606295396,494069885,"""spatial""",,4.26441375732e-05,5.19928665161e-06,2.07101470947e-05,"[0.0, 0.0, 0.0, 0.0, 0.0, 0.0, 0.0, 0.0, 0.0]"
1606295396419158228,,88521,,1606295396,528796271,"""spatial""",,4.26112304687e-05,5.31381111145e-06,2.07788452148e-05,"[0.0, 0.0, 0.0, 0.0, 0.0, 0.0, 0.0, 0.0, 0.0]"
1606295396476457776,,88522,,1606295396,584459344,"""spatial""",,4.26215789795e-05,5.37798538208e-06,2.08218200684e-05,"[0.0, 0.0, 0.0, 0.0, 0.0, 0.0, 0.0, 0.0, 0.0]"
1606295396526083259,,88523,,1606295396,633986855,"""spatial""",,4.25917785645e-05,5.61786575317e-06,2.09553619385e-05,"[0.0, 0.0, 0.0, 0.0, 0.0, 0.0, 0.0, 0.0, 0.0]"
1606295396589585909,,88524,,1606295396,689323203,"""spatial""",,4.25691345215e-05,5.5513874054e-06,2.11187347412e-05,"[0.0, 0.0, 0.0, 0.0, 0.0, 0.0, 0.0, 0.0, 0.0]"
1606295396617057287,,88525,,1606295396,725838614,"""spatial""",,4.25525939941e-05,5.65501060486e-06,2.11315536499e-05,"[0.0, 0.0, 0.0, 0.0, 0.0, 0.0, 0.0, 0.0, 0.0]"
1606295396685609029,,88526,,1606295396,783842999,"""spatial""",,4.26008392334e-05,5.70011138916e-06,2.11926437378e-05,"[0.0, 0.0, 0.0, 0.0, 0.0, 0.0, 0.0, 0.0, 0.0]"
1606295396720697006,,88527,,1606295396,829064385,"""spatial""",,4.26842590332e-05,5.53631362915e-06,2.12433792114e-05,"[0.0, 0.0, 0.0, 0.0, 0.0, 0.0, 0.0, 0.0, 0.0]"
1606295396775046879,,88528,,1606295396,884844358,"""spatial""",,4.26774078369e-05,5.23832626343e-06,2.14882614136e-05,"[0.0, 0.0, 0.0, 0.0, 0.0, 0.0, 0.0, 0.0, 0.0]"
