rosbagTimestamp,header,seq,stamp,secs,nsecs,frame_id,vector,x,y,z
1606295379779019997,,440907,,1606295379,517977533,"""spatial""",,-1.31702012765,-27.7428248047,3.34464054339
1606295379779030142,,440908,,1606295379,518229570,"""spatial""",,-1.30372431066,-27.7566508151,3.38187638686
1606295379779036680,,440909,,1606295379,529850832,"""spatial""",,-1.29295619727,-27.7670873442,3.41812035881
1606295379779048283,,440910,,1606295379,548892531,"""spatial""",,-1.28023144812,-27.7759170712,3.44996355449
1606295379779053565,,440911,,1606295379,549034781,"""spatial""",,-1.26714064352,-27.7826516378,3.48009066515
1606295379779067754,,440912,,1606295379,569020956,"""spatial""",,-1.25418921748,-27.7899172515,3.5112935306
1606295379779095316,,440913,,1606295379,569199706,"""spatial""",,-1.24081229199,-27.7971709124,3.54050155392
1606295379779171862,,440914,,1606295379,589380905,"""spatial""",,-1.22859564488,-27.8044245733,3.57038597942
1606295379779175856,,440915,,1606295379,589448380,"""spatial""",,-1.21765261461,-27.8105427152,3.60096494978
1606295379779255290,,440916,,1606295379,608269892,"""spatial""",,-1.2110375764,-27.8164354609,3.63054820662
1606295379779392393,,440917,,1606295379,608448667,"""spatial""",,-1.20578526765,-27.8229770746,3.6628515863
1606295379779556904,,440918,,1606295379,624632279,"""spatial""",,-1.20156100909,-27.8263989994,3.69474771595
1606295379779645578,,440919,,1606295379,634194991,"""spatial""",,-1.19567391964,-27.8278060184,3.72502381011
1606295379779659606,,440920,,1606295379,654078702,"""spatial""",,-1.19353852503,-27.829508443,3.75638675811
1606295379779676711,,440921,,1606295379,654253927,"""spatial""",,-1.19606057238,-27.8313833299,3.7923929541
1606295379779699652,,440922,,1606295379,673897427,"""spatial""",,-1.19646664847,-27.8323378489,3.82348226765
1606295379779710420,,440923,,1606295379,674038252,"""spatial""",,-1.19646558125,-27.8321278206,3.85164185694
1606295379779718470,,440924,,1606295379,693827113,"""spatial""",,-1.19790877888,-27.8324607923,3.88063686374
1606295379779726739,,440925,,1606295379,693889226,"""spatial""",,-1.19881473944,-27.8355377925,3.90715251187
1606295379779731541,,440926,,1606295379,713416913,"""spatial""",,-1.1996267849,-27.8428290195,3.93374798784
1606295379779738029,,440927,,1606295379,713589688,"""spatial""",,-1.20137317889,-27.8567967563,3.96181195448
1606295379779743108,,440928,,1606295379,727965475,"""spatial""",,-1.2037750576,-27.8774580785,3.98764415681
1606295379779764488,,440929,,1606295379,728582462,"""spatial""",,-1.20356684355,-27.8997125424,4.01183668685
1606295379779768722,,440930,,1606295379,748341724,"""spatial""",,-1.20715834912,-27.9327757806,4.0377845755
1606295379779998319,,440931,,1606295379,748469674,"""spatial""",,-1.21151867785,-27.9681237171,4.06456660101
1606295379780002866,,440932,,1606295379,767788098,"""spatial""",,-1.21520730017,-28.0041888235,4.09273857002
1606295379780079999,,440933,,1606295379,767944398,"""spatial""",,-1.22042300337,-28.0444988924,4.12376683876
1606295379780085960,,440934,,1606295379,784028635,"""spatial""",,-1.22224698405,-28.0905309523,4.15037512133
1606295379780091801,,440935,,1606295379,803715822,"""spatial""",,-1.2212102894,-28.1422679278,4.16865356132
1606295379780095293,,440936,,1606295379,803863859,"""spatial""",,-1.21907179986,-28.1981200921,4.18051845368
1606295379780112572,,440937,,1606295379,823663871,"""spatial""",,-1.21609469115,-28.2548192,4.18368510014
1606295379780352818,,440938,,1606295379,823777021,"""spatial""",,-1.21182230111,-28.3126299211,4.17770484263
1606295379780390683,,440939,,1606295379,833415421,"""spatial""",,-1.21615947123,-28.3688218874,4.16706255413
1606295379780434700,,440940,,1606295379,852999920,"""spatial""",,-1.22074935835,-28.4229972404,4.15550800849
1606295379780643137,,440941,,1606295379,853178282,"""spatial""",,-1.22578480859,-28.4782466406,4.13733757086
1606295379780721856,,440942,,1606295379,872947857,"""spatial""",,-1.23194393168,-28.5305710123,4.11645426748
1606295379786644569,,440943,,1606295379,873062682,"""spatial""",,-1.2401834877,-28.5815003178,4.09778778736
1606295379801933304,,440944,,1606295379,889423318,"""spatial""",,-1.24607324519,-28.6263934437,4.07633501695
1606295379807477301,,440945,,1606295379,889501593,"""spatial""",,-1.25220985,-28.6626873614,4.05862348266
1606295379807485322,,440946,,1606295379,908619668,"""spatial""",,-1.25913384755,-28.6961552883,4.04386259009
1606295379807491042,,440947,,1606295379,908751343,"""spatial""",,-1.26481677838,-28.7270448188,4.03205105858
1606295379818042266,,440948,,1606295379,925323530,"""spatial""",,-1.27062862903,-28.7549290661,4.0233229306
1606295379834842375,,440949,,1606295379,943683766,"""spatial""",,-1.27549844719,-28.7861464457,4.015064805
1606295379837035874,,440950,,1606295379,943943666,"""spatial""",,-1.27907362433,-28.8100725984,4.01013511597
1606295379847290173,,440951,,1606295379,956018741,"""spatial""",,-1.28158286508,-28.8319633547,4.00889714418
1606295379849011284,,440952,,1606295379,956206178,"""spatial""",,-1.28241412045,-28.8556402054,4.01116348633
1606295379859283984,,440953,,1606295379,968092165,"""spatial""",,-1.28090027305,-28.8792316788,4.01755014009
1606295379877134322,,440954,,1606295379,984699652,"""spatial""",,-1.27881514436,-28.9011565861,4.02990424475
1606295379898419802,,440955,,1606295380,4090989,"""spatial""",,-1.27720727514,-28.9201001157,4.05062960001
1606295379902708339,,440956,,1606295380,4292827,"""spatial""",,-1.27596503449,-28.9363081546,4.07841523644
1606295379915668556,,440957,,1606295380,24145626,"""spatial""",,-1.27495576732,-28.9475916271,4.11293672005
1606295379918343339,,440958,,1606295380,24329338,"""spatial""",,-1.27388694943,-28.9572119486,4.15213218749
1606295379927423772,,440959,,1606295380,34802688,"""spatial""",,-1.26814670904,-28.9641036095,4.19277736258
1606295379944768829,,440960,,1606295380,53283250,"""spatial""",,-1.26496021235,-28.9728052705,4.23600989871
1606295379947418546,,440961,,1606295380,53445462,"""spatial""",,-1.26276174521,-28.9806463276,4.27764118236
1606295379964168270,,440962,,1606295380,73224724,"""spatial""",,-1.25961857754,-28.990515951,4.32817604448
1606295379968659707,,440963,,1606295380,73372624,"""spatial""",,-1.25799000431,-28.9994669139,4.36987349559
1606295379981755698,,440964,,1606295380,89284486,"""spatial""",,-1.25657754253,-29.0080490466,4.41572626304
1606295379984062000,,440965,,1606295380,89384086,"""spatial""",,-1.25541971874,-29.0161496509,4.45869882509
1606295380006258855,,440966,,1606295380,108747285,"""spatial""",,-1.25372508478,-29.0225631986,4.49662003536
1606295380008972403,,440967,,1606295380,108921198,"""spatial""",,-1.25433852114,-29.0270438027,4.53423943665
1606295380017616071,,440968,,1606295380,125148934,"""spatial""",,-1.25480457483,-29.0299910293,4.56882836838
1606295380035202362,,440969,,1606295380,143886509,"""spatial""",,-1.25866203089,-29.0265349536,4.60281453591
1606295380036819173,,440970,,1606295380,144003084,"""spatial""",,-1.25902210992,-29.0250971987,4.63365113247
1606295380054385761,,440971,,1606295380,163542958,"""spatial""",,-1.26160007945,-29.0218289532,4.66404931626
1606295380056145258,,440972,,1606295380,163668021,"""spatial""",,-1.26283783779,-29.0169931793,4.69238222159
1606295380074113002,,440973,,1606295380,183084970,"""spatial""",,-1.26026861945,-29.0116895374,4.71660975635
1606295380077326744,,440974,,1606295380,183699595,"""spatial""",,-1.25578534731,-29.0081071032,4.738955574
1606295380094781386,,440975,,1606295380,203007644,"""spatial""",,-1.25021852969,-29.0048422728,4.76131846711
1606295380109262372,,440976,,1606295380,203166707,"""spatial""",,-1.24292250027,-29.0006246309,4.78092025626
1606295380114109518,,440977,,1606295380,223105343,"""spatial""",,-1.23650126868,-28.9963591778,4.80046142747
1606295380116186138,,440978,,1606295380,223273631,"""spatial""",,-1.23060596165,-28.9910521208,4.81783444051
1606295380121748417,,440979,,1606295380,229320443,"""spatial""",,-1.22588747488,-28.9811312711,4.8330418567
1606295380139117890,,440980,,1606295380,248309067,"""spatial""",,-1.2201654839,-28.9705103269,4.84776731766
1606295380153134108,,440981,,1606295380,248455717,"""spatial""",,-1.21421692274,-28.9551799673,4.86406927167
1606295380162047825,,440982,,1606295380,268317154,"""spatial""",,-1.20998828859,-28.9346450036,4.88328771644
1606295380164656008,,440983,,1606295380,268481429,"""spatial""",,-1.20634790449,-28.9106847,4.90402118256
1606295380181233842,,440984,,1606295380,287972291,"""spatial""",,-1.20272576979,-28.8825067545,4.92508975482
1606295380183921453,,440985,,1606295380,288010828,"""spatial""",,-1.19870022705,-28.8499335824,4.94600720916
1606295380217340788,,440986,,1606295380,307708178,"""spatial""",,-1.19408483344,-28.8151098629,4.96618657617
1606295380222116543,,440987,,1606295380,307803865,"""spatial""",,-1.18840478409,-28.7777521432,4.98574140777
1606295380222123245,,440988,,1606295380,324190427,"""spatial""",,-1.18005252996,-28.7396738386,5.00409497984
1606295380232417914,,440989,,1606295380,339377551,"""spatial""",,-1.17045344613,-28.7012881755,5.02338129962
1606295380234609377,,440990,,1606295380,339475901,"""spatial""",,-1.16262786361,-28.6619599462,5.04627267863
1606295380251206953,,440991,,1606295380,358662026,"""spatial""",,-1.15488584418,-28.6205502168,5.07077171341
1606295380252343094,,440992,,1606295380,358795151,"""spatial""",,-1.1479533089,-28.5775029496,5.09610744636
1606295380272748575,,440993,,1606295380,378237812,"""spatial""",,-1.14103923647,-28.5315357765,5.12447364887
1606295380275480865,,440994,,1606295380,378689525,"""spatial""",,-1.13469644533,-28.4830824145,5.15389895759
1606295380290231578,,440995,,1606295380,398222662,"""spatial""",,-1.13040996802,-28.4320011373,5.18574044572
1606295380292969333,,440996,,1606295380,398393737,"""spatial""",,-1.12806635936,-28.3744243501,5.219044875
1606295380311792506,,440997,,1606295380,418279236,"""spatial""",,-1.12558326543,-28.3105398832,5.25254140335
1606295380314482269,,440998,,1606295380,418448586,"""spatial""",,-1.12458957963,-28.24489152,5.28797044835
1606295380334926046,,440999,,1606295380,443971947,"""spatial""",,-1.12325822635,-28.1780478737,5.32389126697
1606295380335950059,,441000,,1606295380,444132735,"""spatial""",,-1.12270850284,-28.1119879916,5.35722344389
1606295380348352784,,441001,,1606295380,457493722,"""spatial""",,-1.12203316789,-28.0449701755,5.38998615379
1606295380355384611,,441002,,1606295380,457651997,"""spatial""",,-1.12056531754,-27.976946614,5.42300542268
1606295380359670033,,441003,,1606295380,468973196,"""spatial""",,-1.1192149678,-27.907389675,5.45327468664
1606295380382037668,,441004,,1606295380,489193621,"""spatial""",,-1.11702130314,-27.8367177077,5.47971136071
1606295380388234254,,441005,,1606295380,489249071,"""spatial""",,-1.11441089021,-27.7661499007,5.50497708423
1606295380419218323,,441006,,1606295380,508044682,"""spatial""",,-1.11042302023,-27.6998748677,5.52482860216
1606295380423348481,,441007,,1606295380,508200307,"""spatial""",,-1.10722659843,-27.6412154955,5.5409674854
1606295380423362074,,441008,,1606295380,524473444,"""spatial""",,-1.10702468096,-27.5758505852,5.55995754572
1606295380434173799,,441009,,1606295380,543038919,"""spatial""",,-1.11022099605,-27.5125193636,5.58226921242
1606295380435875350,,441010,,1606295380,543471581,"""spatial""",,-1.1163770242,-27.4496611327,5.6081611789
1606295380455730521,,441011,,1606295380,562834955,"""spatial""",,-1.12243166673,-27.3860447508,5.63420767842
1606295380459388626,,441012,,1606295380,562977443,"""spatial""",,-1.12707822308,-27.3263642654,5.6559626847
1606295380470136611,,441013,,1606295380,578243330,"""spatial""",,-1.13531649844,-27.2579172321,5.68156095305
1606295380494351560,,441014,,1606295380,578777930,"""spatial""",,-1.14455123436,-27.1881673403,5.70643863644
1606295380515779428,,441015,,1606295380,598322491,"""spatial""",,-1.15855611037,-27.1187418825,5.7338281219
1606295380515788277,,441016,,1606295380,598461466,"""spatial""",,-1.17824679869,-27.0493625285,5.76132091397
1606295380520073952,,441017,,1606295380,618356728,"""spatial""",,-1.20106336578,-26.9779870516,5.78888243481
1606295380520081450,,441018,,1606295380,618498191,"""spatial""",,-1.22522665407,-26.9082952165,5.81430055692
1606295380524453151,,441019,,1606295380,627843265,"""spatial""",,-1.24681987025,-26.8511777595,5.83441759846
1606295380535108255,,441020,,1606295380,644070877,"""spatial""",,-1.2665996712,-26.8247312671,5.85038017744
1606295380537668609,,441021,,1606295380,644209490,"""spatial""",,-1.29605464855,-26.7748452729,5.88501435917
1606295380554912094,,441022,,1606295380,664021701,"""spatial""",,-1.32011089497,-26.7299999584,5.91698647468
1606295380560702843,,441023,,1606295380,664149951,"""spatial""",,-1.35226251639,-26.6743014732,5.9681206859
1606295380576154952,,441024,,1606295380,683683601,"""spatial""",,-1.37866962854,-26.6301921116,6.01882118011
1606295380594293144,,441025,,1606295380,703530137,"""spatial""",,-1.40364592279,-26.5957508827,6.07693925976
1606295380602580304,,441026,,1606295380,703674762,"""spatial""",,-1.42433605989,-26.5602595122,6.14089757803
1606295380621129603,,441027,,1606295380,723518062,"""spatial""",,-1.44168804875,-26.5268513494,6.21255949592
1606295380623708533,,441028,,1606295380,723691112,"""spatial""",,-1.45823578284,-26.4970922152,6.29228445212
1606295380632738939,,441029,,1606295380,738902149,"""spatial""",,-1.4759653531,-26.4683900528,6.38291636665
1606295380634441657,,441030,,1606295380,738968636,"""spatial""",,-1.49081578519,-26.4465812587,6.4817504846
1606295380648878984,,441031,,1606295380,757866785,"""spatial""",,-1.51183366464,-26.4199520587,6.58912020458
1606295380652445103,,441032,,1606295380,757967385,"""spatial""",,-1.53411769042,-26.3876742923,6.70354636374
1606295380665204469,,441033,,1606295380,774366372,"""spatial""",,-1.55740255235,-26.3482538555,6.82522703758
1606295380685021699,,441034,,1606295380,793850421,"""spatial""",,-1.5786897974,-26.3067143525,6.95021437675
1606295380688345300,,441035,,1606295380,793999621,"""spatial""",,-1.59718669672,-26.2656768684,7.07967420917
1606295380709364834,,441036,,1606295380,813816971,"""spatial""",,-1.61181760225,-26.2267328373,7.20918612177
1606295380723898300,,441037,,1606295380,813947421,"""spatial""",,-1.62355805711,-26.1891275233,7.33923975376
1606295380729891745,,441038,,1606295380,826328333,"""spatial""",,-1.63313590331,-26.1532417094,7.46917641876
1606295380736218790,,441039,,1606295380,843394645,"""spatial""",,-1.64341523129,-26.1183326125,7.59828321577
1606295380738275985,,441040,,1606295380,843663582,"""spatial""",,-1.65409017663,-26.0890413463,7.73236751314
1606295380755251392,,441041,,1606295380,863269294,"""spatial""",,-1.66465573223,-26.0595059007,7.86436006508
1606295380764116333,,441042,,1606295380,863486456,"""spatial""",,-1.6747344234,-26.0369030972,7.99354626304
1606295380770498995,,441043,,1606295380,878737756,"""spatial""",,-1.68510755976,-26.0223411339,8.12012247496
1606295380772752895,,441044,,1606295380,879248156,"""spatial""",,-1.69193902959,-26.0182037468,8.23541265306
1606295380793373205,,441045,,1606295380,898829667,"""spatial""",,-1.6992586445,-26.0221703792,8.34163233993
1606295380797948014,,441046,,1606295380,898971255,"""spatial""",,-1.7091973168,-26.0319597478,8.44314090383
1606295380824578545,,441047,,1606295380,918922842,"""spatial""",,-1.72156732299,-26.0433132298,8.54066149103
1606295380834004617,,441048,,1606295380,919083117,"""spatial""",,-1.73756021093,-26.0513848058,8.63518447895
1606295380834016759,,441049,,1606295380,934454591,"""spatial""",,-1.75611079128,-26.0565347685,8.72560935337
1606295380861282285,,441050,,1606295380,949793941,"""spatial""",,-1.7767651766,-26.0611690518,8.8116347322
1606295380872037989,,441051,,1606295380,949943566,"""spatial""",,-1.80036444068,-26.066988373,8.89373872866
1606295380872042195,,441052,,1606295380,959776840,"""spatial""",,-1.8222184847,-26.0723586092,8.9664614603
1606295380872045962,,441053,,1606295380,974594352,"""spatial""",,-1.85498973234,-26.0734070433,9.05967988209
1606295380872056260,,441054,,1606295380,975304065,"""spatial""",,-1.88591213315,-26.0684227127,9.13766698204
1606295380890991245,,441055,,1606295380,994029114,"""spatial""",,-1.92245855441,-26.0637150048,9.22410387976
1606295380894755176,,441056,,1606295380,994157776,"""spatial""",,-1.96213555018,-26.0567789477,9.31178216436
1606295380916897219,,441057,,1606295381,14021088,"""spatial""",,-2.00362894939,-26.0445324185,9.39801586395
1606295380935204293,,441058,,1606295381,14162438,"""spatial""",,-2.04673662112,-26.0286727193,9.48546533722
1606295380946348203,,441059,,1606295381,43604562,"""spatial""",,-2.08917450742,-26.0087063688,9.5673063714
1606295380946353676,,441060,,1606295381,43877374,"""spatial""",,-2.1321511249,-25.9850141501,9.64785906115
1606295380954647418,,441061,,1606295381,63526999,"""spatial""",,-2.17048022553,-25.9478442606,9.72521607614
1606295380957232223,,441062,,1606295381,63630236,"""spatial""",,-2.20483671739,-25.9097078994,9.80144013351
1606295380977203211,,441063,,1606295381,82763735,"""spatial""",,-2.23685856521,-25.8739381987,9.87334751131
1606295380982383906,,441064,,1606295381,83337798,"""spatial""",,-2.2670556853,-25.8397052906,9.94529672403
1606295381034984526,,441065,,1606295381,102785472,"""spatial""",,-2.29976161925,-25.8090223733,10.0200019181
1606295381305126454,,441066,,1606295381,102934647,"""spatial""",,-2.33229167584,-25.7796508523,10.0935135366
1606295381305135397,,441067,,1606295381,122791771,"""spatial""",,-2.36347362383,-25.7498934257,10.1648343719
1606295381305139646,,441068,,1606295381,122942621,"""spatial""",,-2.39495823458,-25.7215737538,10.2363720657
1606295381305142929,,441069,,1606295381,134511908,"""spatial""",,-2.42729000224,-25.6928340253,10.3068246132
1606295381353616862,,441070,,1606295381,153674170,"""spatial""",,-2.46113444335,-25.660559674,10.3734198114
1606295381353625598,,441071,,1606295381,153812145,"""spatial""",,-2.49301691262,-25.632866672,10.4354029243
1606295381353633352,,441072,,1606295381,173681269,"""spatial""",,-2.52177734511,-25.6031929151,10.4889311169
1606295381353637806,,441073,,1606295381,173841119,"""spatial""",,-2.54583818057,-25.5707956203,10.5300915444
1606295381353641997,,441074,,1606295381,193199056,"""spatial""",,-2.5668008849,-25.5345256083,10.5641536977
1606295381353646143,,441075,,1606295381,193476256,"""spatial""",,-2.58675208091,-25.501006455,10.5888952042
1606295381353665046,,441076,,1606295381,213124605,"""spatial""",,-2.60546039594,-25.4707794528,10.6122997012
1606295381353669539,,441077,,1606295381,213255105,"""spatial""",,-2.62020314582,-25.4451508755,10.628387358
1606295381353673360,,441078,,1606295381,225631818,"""spatial""",,-2.62711892579,-25.4221553361,10.6318818536
1606295381353677214,,441079,,1606295381,238661992,"""spatial""",,-2.63208148511,-25.402040429,10.6308479337
1606295381353688722,,441080,,1606295381,238943842,"""spatial""",,-2.64114045039,-25.3849956919,10.6301947968
1606295381353692828,,441081,,1606295381,258480004,"""spatial""",,-2.64444626194,-25.3747213798,10.6270938909
1606295381353702620,,441082,,1606295381,258628366,"""spatial""",,-2.64468467824,-25.3657208981,10.6182120837
1606295381353706753,,441083,,1606295381,277880366,"""spatial""",,-2.64188536789,-25.3588172844,10.6047105073
1606295381353710789,,441084,,1606295381,278189240,"""spatial""",,-2.6331493425,-25.352810133,10.5832935953
1606295381353718309,,441085,,1606295381,297922840,"""spatial""",,-2.62103493479,-25.3479453308,10.5557167066
1606295381353722505,,441086,,1606295381,298030240,"""spatial""",,-2.60879139382,-25.3469225099,10.5250039072
1606295381353730756,,441087,,1606295381,317943614,"""spatial""",,-2.59921610893,-25.3475372269,10.4889183103
1606295381353735380,,441088,,1606295381,318048526,"""spatial""",,-2.59279210257,-25.3484729629,10.4566618881
1606295381353738966,,441089,,1606295381,329287151,"""spatial""",,-2.58449939915,-25.3479589911,10.4206642299
1606295381353743033,,441090,,1606295381,348929625,"""spatial""",,-2.57599730773,-25.3477079817,10.3816775101
1606295381353752299,,441091,,1606295381,349053613,"""spatial""",,-2.56993636862,-25.3474911232,10.341922394
1606295381449762449,,441092,,1606295381,369016925,"""spatial""",,-2.56466666423,-25.3464307363,10.301374976
1606295381449772354,,441093,,1606295381,369179012,"""spatial""",,-2.55725825686,-25.3447983211,10.253351916
1606295381449778708,,441094,,1606295381,389087836,"""spatial""",,-2.54462582199,-25.3384974716,10.1962464119
1606295381449783434,,441095,,1606295381,389206099,"""spatial""",,-2.52967176313,-25.3288942256,10.135322832
1606295381449786271,,441096,,1606295381,408281786,"""spatial""",,-2.51265520059,-25.3185925928,10.0685893225
1606295381449794200,,441097,,1606295381,408400123,"""spatial""",,-2.49784286816,-25.3098414129,10.0023356338
1606295381449799699,,441098,,1606295381,424771385,"""spatial""",,-2.48576752059,-25.3012644029,9.94305556821
1606295381449804077,,441099,,1606295381,434501235,"""spatial""",,-2.46816847098,-25.2851793074,9.85987581695
1606295381449811181,,441100,,1606295381,434588985,"""spatial""",,-2.45490787215,-25.2760200237,9.79713540678
1606295381449817289,,441101,,1606295381,454000834,"""spatial""",,-2.43828532614,-25.259113598,9.72932187361
1606295381449827707,,441102,,1606295381,454130384,"""spatial""",,-2.42000880714,-25.2437063987,9.66084581208
1606295381503937775,,441103,,1606295381,478084733,"""spatial""",,-2.39948835755,-25.2349381434,9.59108652877
1606295381503951623,,441104,,1606295381,478720933,"""spatial""",,-2.37261903369,-25.2322436338,9.51655294322
1606295381503956875,,441105,,1606295381,498073882,"""spatial""",,-2.33786873874,-25.2290966241,9.43728091394
1606295381503961175,,441106,,1606295381,498189595,"""spatial""",,-2.3010672526,-25.2239176332,9.36071705467
1606295381503970397,,441107,,1606295381,518085294,"""spatial""",,-2.2641592582,-25.214036057,9.28878747875
1606295381503980195,,441108,,1606295381,518223694,"""spatial""",,-2.22800514594,-25.2030736034,9.21592131313
1606295381503990234,,441109,,1606295381,533592893,"""spatial""",,-2.19670751161,-25.192155546,9.14350423246
1606295381503995952,,441110,,1606295381,552905730,"""spatial""",,-2.17169087656,-25.1756640542,9.07224486885
1606295381504001626,,441111,,1606295381,553005280,"""spatial""",,-2.15386301561,-25.1552315433,8.9992566136
1606295381557356313,,441112,,1606295381,573019079,"""spatial""",,-2.13654891295,-25.1302723245,8.92415099971
1606295381557364216,,441113,,1606295381,573145592,"""spatial""",,-2.11696462617,-25.1026988509,8.83675019155
1606295381557370780,,441114,,1606295381,588967504,"""spatial""",,-2.10208975481,-25.0774151981,8.75028426552
1606295381557376950,,441115,,1606295381,589034016,"""spatial""",,-2.08458269931,-25.0593203194,8.65998831092
1606295381557381788,,441116,,1606295381,608765803,"""spatial""",,-2.06291819304,-25.0379811009,8.57338919621
1606295381557388133,,441117,,1606295381,608951678,"""spatial""",,-2.04480986744,-25.00987658,8.4989905069
1606295381593499208,,441118,,1606295381,624874827,"""spatial""",,-2.02288858875,-24.9850146915,8.41616507171
1606295381593510708,,441119,,1606295381,634554977,"""spatial""",,-2.00332095055,-24.9541763874,8.33315778272
1606295381593517880,,441120,,1606295381,634605189,"""spatial""",,-1.9787689818,-24.924772423,8.24218734694
1606295381593521522,,441121,,1606295381,654197901,"""spatial""",,-1.94837912231,-24.8914923263,8.14622489665
1606295381593525432,,441122,,1606295381,654332489,"""spatial""",,-1.91489369301,-24.8590830786,8.05101376717
1606295381593537426,,441123,,1606295381,674159925,"""spatial""",,-1.87787812314,-24.8307634068,7.94701389177
1606295381619150835,,441124,,1606295381,693667787,"""spatial""",,-1.8492423416,-24.8059698201,7.85901288073
1606295381619156579,,441125,,1606295381,693838825,"""spatial""",,-1.82851122336,-24.7751554217,7.78277687053
1606295381694435747,,441126,,1606295381,713640374,"""spatial""",,-1.816280489,-24.7378830794,7.71732829036
1606295381694444354,,441127,,1606295381,713738699,"""spatial""",,-1.80910900381,-24.6960088971,7.66048233345
1606295381694448595,,441128,,1606295381,728042098,"""spatial""",,-1.80602944227,-24.6563391584,7.61512390094
1606295381694452041,,441129,,1606295381,728515123,"""spatial""",,-1.79317438592,-24.6196951935,7.56255705754
1606295381721711727,,441130,,1606295381,748056673,"""spatial""",,-1.7737394028,-24.5876155025,7.51864064873
1606295381721719464,,441131,,1606295381,748167623,"""spatial""",,-1.75986430039,-24.5453946882,7.4723951454
1606295381721724041,,441132,,1606295381,768108909,"""spatial""",,-1.74665588847,-24.4990945433,7.42845397715
1606295381721728991,,441133,,1606295381,768212247,"""spatial""",,-1.73386187694,-24.4530437004,7.384904691
1606295381721738085,,441134,,1606295381,784436484,"""spatial""",,-1.71542154012,-24.4174157262,7.33010608329
1606295381721740738,,441135,,1606295381,804023745,"""spatial""",,-1.69851618159,-24.406164697,7.26845338075
1606295381721743884,,441136,,1606295381,804106308,"""spatial""",,-1.6831892371,-24.4141662637,7.19503994623
1606295381743916265,,441137,,1606295381,824151545,"""spatial""",,-1.69469084877,-24.3898337147,7.16923976041
1606295381743922348,,441138,,1606295381,824301632,"""spatial""",,-1.72732410524,-24.3642324582,7.1635416751
1606295381755224049,,441139,,1606295381,834044582,"""spatial""",,-1.76106481286,-24.3109928411,7.15852575493
1606295381755229694,,441140,,1606295381,853459269,"""spatial""",,-1.79452569616,-24.2614039602,7.16338031188
1606295381755235812,,441141,,1606295381,853563981,"""spatial""",,-1.8380120165,-24.2121036548,7.18555452102
1606295381765129523,,441142,,1606295381,873250230,"""spatial""",,-1.8781385241,-24.1697001329,7.2122434852
1606295381766999743,,441143,,1606295381,873335968,"""spatial""",,-1.90960776693,-24.142534763,7.24143912881
1606295381781626828,,441144,,1606295381,889367330,"""spatial""",,-1.9384949848,-24.1273102713,7.27779707953
1606295381789049492,,441145,,1606295381,889438642,"""spatial""",,-1.94484065743,-24.1271395166,7.29588342046
1606295381799823446,,441146,,1606295381,908989329,"""spatial""",,-1.94116580221,-24.1347654228,7.3085457374
1606295381801054587,,441147,,1606295381,909158979,"""spatial""",,-1.92761385313,-24.1572999244,7.30889919969
1606295381816621805,,441148,,1606295381,925183578,"""spatial""",,-1.90886242253,-24.1931088987,7.3111471857
1606295381845293150,,441149,,1606295381,943721628,"""spatial""",,-1.88658170513,-24.2269763917,7.31237149711
1606295381858492387,,441150,,1606295381,943791478,"""spatial""",,-1.87470656749,-24.2580400921,7.3201015637
1606295381858499913,,441151,,1606295381,953070215,"""spatial""",,-1.85317951877,-24.2895426321,7.33341445617
1606295381862329992,,441152,,1606295381,968787677,"""spatial""",,-1.83300612817,-24.3207787947,7.35201306128
1606295381862341137,,441153,,1606295381,968961664,"""spatial""",,-1.81351468927,-24.357779637,7.3770841244
1606295381878245096,,441154,,1606295381,984497276,"""spatial""",,-1.78929323765,-24.4097403011,7.39705303622
1606295381881736285,,441155,,1606295381,984639176,"""spatial""",,-1.75622220874,-24.4766368814,7.40225593282
1606295381905499097,,441156,,1606295382,4151525,"""spatial""",,-1.71970961826,-24.5473139713,7.40169756485
1606295381959541732,,441157,,1606295382,4286325,"""spatial""",,-1.68353256082,-24.6188619104,7.40070718742
1606295381997717552,,441158,,1606295382,24177075,"""spatial""",,-1.65208935809,-24.6942637838,7.40073963082
1606295381997723332,,441159,,1606295382,34376499,"""spatial""",,-1.62959188891,-24.7663974116,7.39944530997
1606295381997728149,,441160,,1606295382,53737398,"""spatial""",,-1.61477027169,-24.8417087849,7.40804878701
1606295381997736790,,441161,,1606295382,54022523,"""spatial""",,-1.60900729957,-24.9049238933,7.42187735875
1606295381997742364,,441162,,1606295382,73511998,"""spatial""",,-1.60497652747,-24.9664280392,7.43648798716
1606295381997761489,,441163,,1606295382,73668660,"""spatial""",,-1.60333269303,-25.0335568459,7.4537931252
1606295382006637190,,441164,,1606295382,93476809,"""spatial""",,-1.60677841675,-25.1092455872,7.47844583923
1606295382006641574,,441165,,1606295382,93552334,"""spatial""",,-1.61071996951,-25.1908356119,7.50682186014
1606295382006649104,,441166,,1606295382,112968634,"""spatial""",,-1.61801215694,-25.2743193066,7.54332239106
1606295382006658592,,441167,,1606295382,113129446,"""spatial""",,-1.6167832565,-25.3622477469,7.57137739308
1606295382018254934,,441168,,1606295382,125399671,"""spatial""",,-1.6059570865,-25.4468857435,7.59560748916
1606295382038611371,,441169,,1606295382,143971620,"""spatial""",,-1.58796092542,-25.5228169565,7.62170478821
1606295382051636595,,441170,,1606295382,144058495,"""spatial""",,-1.57206291307,-25.6042037831,7.65225793191
1606295382056272033,,441171,,1606295382,163822844,"""spatial""",,-1.55155249533,-25.6687337029,7.69126001962
1606295382056282423,,441172,,1606295382,163973794,"""spatial""",,-1.52590257367,-25.7296384997,7.73223859332
1606295382079965589,,441173,,1606295382,183352543,"""spatial""",,-1.48853663644,-25.7945953062,7.77137045462
1606295382086506330,,441174,,1606295382,183756193,"""spatial""",,-1.44033513769,-25.8604622355,7.80479654664
1606295382095875225,,441175,,1606295382,203391055,"""spatial""",,-1.3871080071,-25.923899325,7.83351151569
1606295382098148621,,441176,,1606295382,203560943,"""spatial""",,-1.32897338558,-25.9933674715,7.85213829533
1606295382114278222,,441177,,1606295382,223350854,"""spatial""",,-1.27092552882,-26.0716943733,7.86228881021
1606295382116248022,,441178,,1606295382,223489229,"""spatial""",,-1.21992749449,-26.1531273037,7.87240602792
1606295382124904186,,441179,,1606295382,230320942,"""spatial""",,-1.17699687408,-26.2311383093,7.88465682597
1606295382141363529,,441180,,1606295382,248758278,"""spatial""",,-1.13758369436,-26.3089461168,7.89424726534
1606295382155566798,,441181,,1606295382,248888128,"""spatial""",,-1.10415728217,-26.3835659335,7.90347058204
1606295382160768392,,441182,,1606295382,268795865,"""spatial""",,-1.07930884052,-26.4593502974,7.92099940877
1606295382163661283,,441183,,1606295382,268946078,"""spatial""",,-1.05731595156,-26.5410410674,7.93882791005
1606295382180150102,,441184,,1606295382,288504139,"""spatial""",,-1.02867483394,-26.6260496018,7.94765080691
1606295382182715782,,441185,,1606295382,288569914,"""spatial""",,-0.992060964561,-26.7072144473,7.94709756159
1606295382199180129,,441186,,1606295382,308260564,"""spatial""",,-0.946971043868,-26.7861406982,7.9348834758
1606295382202368323,,441187,,1606295382,308376639,"""spatial""",,-0.897071922948,-26.8679885626,7.91130822411
1606295382217145520,,441188,,1606295382,324461863,"""spatial""",,-0.849970724988,-26.9519059743,7.88678784499
1606295382236841814,,441189,,1606295382,343303875,"""spatial""",,-0.8139642622,-27.0348996029,7.87363716952
1606295382239250301,,441190,,1606295382,343538675,"""spatial""",,-0.77971385172,-27.1153045898,7.86169116866
1606295382254210002,,441191,,1606295382,362866924,"""spatial""",,-0.758844315433,-27.2078775587,7.85539714934
1606295382257393900,,441192,,1606295382,363012674,"""spatial""",,-0.750738001466,-27.3021000183,7.86102095634
1606295382273611185,,441193,,1606295382,378354349,"""spatial""",,-0.748392311734,-27.3937389589,7.86790151816
1606295382277850968,,441194,,1606295382,378815686,"""spatial""",,-0.7465257491,-27.4827738898,7.86917620221
1606295382291198390,,441195,,1606295382,398335235,"""spatial""",,-0.741466019668,-27.5607234237,7.85953197511
1606295382300467242,,441196,,1606295382,398422448,"""spatial""",,-0.734250885305,-27.6207573714,7.84395829002
1606295382309667577,,441197,,1606295382,418402485,"""spatial""",,-0.72797410154,-27.6655275539,7.82627578404
1606295382312116100,,441198,,1606295382,418534334,"""spatial""",,-0.72651318811,-27.7010513678,7.81106751408
1606295382321363178,,441199,,1606295382,428038447,"""spatial""",,-0.732402785526,-27.731659153,7.80368920223
1606295382334690463,,441200,,1606295382,444074384,"""spatial""",,-0.736870049408,-27.7654822497,7.80143267848
1606295382336967886,,441201,,1606295382,444135934,"""spatial""",,-0.748991660834,-27.7952174783,7.8064178628
1606295382356347454,,441202,,1606295382,456918946,"""spatial""",,-0.762592435101,-27.8269983485,7.81656581636
1606295382360719718,,441203,,1606295382,468793333,"""spatial""",,-0.777998673826,-27.8567404072,7.83680025177
1606295382381104193,,441204,,1606295382,488643332,"""spatial""",,-0.797703876303,-27.8865712584,7.87353471668
1606295382384275080,,441205,,1606295382,489349769,"""spatial""",,-0.818105918158,-27.9103966658,7.91877788974
1606295382401885020,,441206,,1606295382,508325031,"""spatial""",,-0.837666085837,-27.9253377046,7.97109543124
1606295382404879628,,441207,,1606295382,508465494,"""spatial""",,-0.852646078069,-27.9282234595,8.02402854353
1606295382415489627,,441208,,1606295382,524706393,"""spatial""",,-0.860289593359,-27.9208468552,8.07169216488
1606295382434900242,,441209,,1606295382,543375392,"""spatial""",,-0.859401508684,-27.9059280145,8.11653747942
1606295382437120932,,441210,,1606295382,543595567,"""spatial""",,-0.845717971734,-27.8799152391,8.15717112857
1606295382459588614,,441211,,1606295382,563092616,"""spatial""",,-0.809749982121,-27.8478611613,8.18807175815
1606295382461270460,,441212,,1606295382,563269841,"""spatial""",,-0.761926971905,-27.8137973004,8.21988507175
1606295382469137756,,441213,,1606295382,578575891,"""spatial""",,-0.711638316758,-27.7755960524,8.26145445682
1606295382473726393,,441214,,1606295382,579536291,"""spatial""",,-0.670273623927,-27.7322243511,8.31744834763
1606295382489750239,,441215,,1606295382,598606890,"""spatial""",,-0.6385115901,-27.7044545095,8.38038085687
1606295382491610850,,441216,,1606295382,598760578,"""spatial""",,-0.611478288335,-27.7195406898,8.44103464425
1606295382509424690,,441217,,1606295382,618563377,"""spatial""",,-0.579929964724,-27.7690066274,8.48777960515
1606295382510592344,,441218,,1606295382,618709477,"""spatial""",,-0.535571407881,-27.8473506047,8.51688560253
1606295382521710799,,441219,,1606295382,628804576,"""spatial""",,-0.476080673653,-27.9476433949,8.53119057997
1606295382539189261,,441220,,1606295382,647877013,"""spatial""",,-0.397183797849,-28.0355445144,8.52606879187
1606295382540654508,,441221,,1606295382,648028726,"""spatial""",,-0.32144932631,-28.1262801625,8.51131643703
1606295382560997865,,441222,,1606295382,667897062,"""spatial""",,-0.265252877697,-28.1972133845,8.50229290337
1606295382563709875,,441223,,1606295382,668024762,"""spatial""",,-0.239699645908,-28.2486156807,8.50737627166
1606295382575864444,,441224,,1606295382,684150837,"""spatial""",,-0.240873931517,-28.2909918818,8.52165990476
1606295382594767023,,441225,,1606295382,703867336,"""spatial""",,-0.252721935169,-28.3336429981,8.52955133457
1606295382598217157,,441226,,1606295382,703993724,"""spatial""",,-0.256798277443,-28.391066106,8.51312729094
1606295382614642909,,441227,,1606295382,723957060,"""spatial""",,-0.265442415447,-28.4639578848,8.50000649754
1606295382616426493,,441228,,1606295382,724116223,"""spatial""",,-0.273397264633,-28.5131164638,8.49167025166
1606295382633146195,,441229,,1606295382,739045322,"""spatial""",,-0.272436208992,-28.5253544553,8.47607095337
1606295382635855755,,441230,,1606295382,739126610,"""spatial""",,-0.275345762856,-28.5093837655,8.47576274108
1606295382651097804,,441231,,1606295382,758466997,"""spatial""",,-0.278581991862,-28.478803301,8.49415131787
1606295382653749775,,441232,,1606295382,758628897,"""spatial""",,-0.282365649858,-28.4460030251,8.52680047588
1606295382670837452,,441233,,1606295382,774668533,"""spatial""",,-0.275733135968,-28.4072195034,8.55636409593
1606295382674703676,,441234,,1606295382,775575746,"""spatial""",,-0.272824569279,-28.372180633,8.60020281134
1606295382685119535,,441235,,1606295382,794156658,"""spatial""",,-0.262729122799,-28.3475253576,8.63669224321
1606295382686219060,,441236,,1606295382,794331858,"""spatial""",,-0.250683523909,-28.3278885637,8.66640441987
1606295382704983932,,441237,,1606295382,814126732,"""spatial""",,-0.232445744886,-28.3001306749,8.68878524224
1606295382710273109,,441238,,1606295382,814290169,"""spatial""",,-0.207634615818,-28.2616186533,8.70394996974
1606295382739272509,,441239,,1606295382,843601868,"""spatial""",,-0.175642009746,-28.219382471,8.71564410737
1606295382741584687,,441240,,1606295382,843882193,"""spatial""",,-0.129175552471,-28.1854517988,8.71655337631
1606295382759131517,,441241,,1606295382,863839568,"""spatial""",,-0.0666955499352,-28.159930797,8.69964695056
1606295383032132462,,441242,,1606295382,864004830,"""spatial""",,0.00154893736831,-28.1489973716,8.67719355744
1606295383078242185,,441243,,1606295382,882905854,"""spatial""",,0.0729280175116,-28.1555680136,8.65202687167
1606295383078251503,,441244,,1606295382,883605879,"""spatial""",,0.144144552368,-28.1790570342,8.62764309633
1606295383078258942,,441245,,1606295382,902878991,"""spatial""",,0.213148672892,-28.2150060273,8.60620996272
1606295383078262807,,441246,,1606295382,903035216,"""spatial""",,0.278273646174,-28.2603636061,8.5903946597
1606295383078266619,,441247,,1606295382,922900765,"""spatial""",,0.330353144904,-28.3197350254,8.58729973023
1606295383078270613,,441248,,1606295382,923053840,"""spatial""",,0.370291342055,-28.3988969179,8.58758915949
1606295383078274369,,441249,,1606295382,934728740,"""spatial""",,0.406350391963,-28.5149384168,8.56940036573
1606295383078284147,,441250,,1606295382,953755989,"""spatial""",,0.44692846578,-28.6565197006,8.52714710798
1606295383078303035,,441251,,1606295382,953910152,"""spatial""",,0.484271724655,-28.7818570869,8.46897353305
1606295383078308697,,441252,,1606295382,963056951,"""spatial""",,0.514059833812,-28.8556197149,8.40668562291
1606295383078313136,,441253,,1606295382,977901488,"""spatial""",,0.522672168746,-28.8493530163,8.36143220456
1606295383078318567,,441254,,1606295382,978712976,"""spatial""",,0.503839522936,-28.7529209905,8.35957951575
1606295383078323472,,441255,,1606295382,997886900,"""spatial""",,0.465503858919,-28.5946518471,8.40064858946
1606295383078328086,,441256,,1606295382,998043862,"""spatial""",,0.407104354134,-28.4304165334,8.4802587131
1606295383078332130,,441257,,1606295383,17874474,"""spatial""",,0.327550446147,-28.2933465896,8.60334469836
1606295383078335627,,441258,,1606295383,18061274,"""spatial""",,0.240833857517,-28.1847978082,8.74640215675
1606295383078360579,,441259,,1606295383,43831723,"""spatial""",,0.164841933203,-28.0803761686,8.8741924348
1606295383078364192,,441260,,1606295383,44103048,"""spatial""",,0.096352264662,-27.9531997538,8.98298795677
1606295383078371253,,441261,,1606295383,63578385,"""spatial""",,0.0388157983005,-27.8012143844,9.06333574085
1606295383078383917,,441262,,1606295383,63720772,"""spatial""",,-0.0127725596359,-27.6403173257,9.12522664624
1606295383078387969,,441263,,1606295383,83062784,"""spatial""",,-0.0588743696858,-27.4781891253,9.1777234802
1606295383078396192,,441264,,1606295383,83833059,"""spatial""",,-0.104501527445,-27.2995216219,9.23568702682
1606295383103248474,,441265,,1606295383,103037371,"""spatial""",,-0.149895598329,-27.1167338069,9.3028977958
1606295383103261575,,441266,,1606295383,103154396,"""spatial""",,-0.196511932899,-26.9345487561,9.39190625974
1606295383103268869,,441267,,1606295383,123118658,"""spatial""",,-0.228511369161,-26.7752363012,9.4931860123
1606295383103272754,,441268,,1606295383,123256370,"""spatial""",,-0.233994623682,-26.6555321134,9.59184724109
1606295383103276825,,441269,,1606295383,135036370,"""spatial""",,-0.209348686475,-26.5805366363,9.68840477161
1606295383103287921,,441270,,1606295383,154006806,"""spatial""",,-0.158728300246,-26.5491450869,9.78888197694
1606295383103292336,,441271,,1606295383,154179419,"""spatial""",,-0.079879109034,-26.5696271166,9.88226859214
1606295383103296610,,441272,,1606295383,174074106,"""spatial""",,0.0213512013609,-26.6224705827,9.96078759307
1606295383103302683,,441273,,1606295383,174266656,"""spatial""",,0.134019877481,-26.6935113803,10.0245465552
1606295383184779497,,441274,,1606295383,193697817,"""spatial""",,0.239836649898,-26.8051439921,10.0850534935
1606295383184788307,,441275,,1606295383,193760417,"""spatial""",,0.324942461143,-26.975202042,10.1486784132
1606295383184815618,,441276,,1606295383,213612592,"""spatial""",,0.395641268994,-27.1606519233,10.203770719
1606295383184823250,,441277,,1606295383,213742329,"""spatial""",,0.46463487743,-27.3083872075,10.2222105222
1606295383208148213,,441278,,1606295383,225844929,"""spatial""",,0.534616515418,-27.3955506666,10.2094303845
1606295383208155125,,441279,,1606295383,238976978,"""spatial""",,0.607627982634,-27.4389138301,10.1606910084
1606295383208158574,,441280,,1606295383,239165728,"""spatial""",,0.651787877021,-27.3751147406,10.1328050535
1606295383208176472,,441281,,1606295383,258733427,"""spatial""",,0.676751898273,-27.2083727474,10.1167037363
1606295383208188789,,441282,,1606295383,258837015,"""spatial""",,0.692344473096,-26.9999666004,10.1001447965
1606295383208193919,,441283,,1606295383,278162427,"""spatial""",,0.679441925589,-26.7730967445,10.10658908
1606295383208197289,,441284,,1606295383,278605414,"""spatial""",,0.645478596497,-26.548967502,10.1290177136
1606295383247229349,,441285,,1606295383,298574313,"""spatial""",,0.602168687135,-26.3447960722,10.1536123711
1606295383247237817,,441286,,1606295383,298675963,"""spatial""",,0.558583435773,-26.1769441733,10.1776631747
1606295383247243300,,441287,,1606295383,318215750,"""spatial""",,0.519669660276,-26.0720871092,10.1948743976
1606295383247247576,,441288,,1606295383,318359075,"""spatial""",,0.496672680145,-26.0431066166,10.1943134683
1606295383286229239,,441289,,1606295383,333491375,"""spatial""",,0.48857527744,-26.0741600716,10.1752580943
1606295383286241152,,441290,,1606295383,353003611,"""spatial""",,0.49212457457,-26.100983932,10.1462912621
1606295383286245290,,441291,,1606295383,353121299,"""spatial""",,0.493106574346,-26.1794508528,10.1161547599
1606295383299860630,,441292,,1606295383,373044898,"""spatial""",,0.497847259239,-26.260608868,10.0782011062
1606295383299869980,,441293,,1606295383,373186786,"""spatial""",,0.510457069107,-26.3394087605,10.027282046
1606295383299876533,,441294,,1606295383,389193760,"""spatial""",,0.53142393559,-26.4241970213,9.9604529138
1606295383299884922,,441295,,1606295383,389289572,"""spatial""",,0.547034706464,-26.5147567919,9.89098391352
1606295383305296035,,441296,,1606295383,408578497,"""spatial""",,0.562862389205,-26.6072665816,9.81137891252
1606295383305306035,,441297,,1606295383,408705559,"""spatial""",,0.577584435074,-26.6947100785,9.72628756207
1606295383316100326,,441298,,1606295383,425022221,"""spatial""",,0.590168685094,-26.7756853862,9.63586012632
1606295383421271799,,441299,,1606295383,434928783,"""spatial""",,0.595813516278,-26.8438335986,9.54441328485
1606295383443820923,,441300,,1606295383,435095696,"""spatial""",,0.587684043701,-26.9092838863,9.4446071456
1606295383443828561,,441301,,1606295383,452140920,"""spatial""",,0.578492903595,-26.9572420596,9.33127125538
1606295383443837806,,441302,,1606295383,462097020,"""spatial""",,0.554994331446,-27.002046393,9.22150584655
1606295383443842007,,441303,,1606295383,478376944,"""spatial""",,0.515645398194,-27.0422249808,9.11970956094
1606295383443854699,,441304,,1606295383,479162094,"""spatial""",,0.453564421446,-27.0816693232,9.04343000829
1606295383443860008,,441305,,1606295383,498392918,"""spatial""",,0.381086642801,-27.1278823832,8.97658721575
1606295383443865346,,441306,,1606295383,498562018,"""spatial""",,0.304620300484,-27.1808914813,8.9155176406
1606295383443886155,,441307,,1606295383,518387855,"""spatial""",,0.232804169735,-27.2375427778,8.85060010764
1606295383443889966,,441308,,1606295383,518970980,"""spatial""",,0.164628756596,-27.2939157442,8.78592590016
1606295383459175995,,441309,,1606295383,533883729,"""spatial""",,0.10041700095,-27.3452855969,8.72034925394
1606295383459184793,,441310,,1606295383,553235291,"""spatial""",,0.0494299789718,-27.3904536379,8.64814561668
1606295383459190313,,441311,,1606295383,553375779,"""spatial""",,-0.00288046282006,-27.4225606496,8.57657035682
1606295383494489115,,441312,,1606295383,573333615,"""spatial""",,-0.0533432471443,-27.4457252362,8.50654896499
1606295383494511673,,441313,,1606295383,573488553,"""spatial""",,-0.102625953497,-27.4633573695,8.44044297911
1606295383507643931,,441314,,1606295383,589296165,"""spatial""",,-0.150453859572,-27.4797771443,8.37378887055
1606295383507650993,,441315,,1606295383,589399015,"""spatial""",,-0.199926720659,-27.4946464661,8.30898318193
1606295383510902017,,441316,,1606295383,608740689,"""spatial""",,-0.247238573926,-27.5102636937,8.2398462996
1606295383510907480,,441317,,1606295383,608808414,"""spatial""",,-0.28862346384,-27.5287478931,8.15727785027
1606295383519882371,,441318,,1606295383,625310001,"""spatial""",,-0.333680620969,-27.5440902055,8.07302319799
1606295383531246944,,441319,,1606295383,638637988,"""spatial""",,-0.384357796485,-27.5546838289,7.98862169665
1606295383534020297,,441320,,1606295383,638722188,"""spatial""",,-0.438268719728,-27.5640804617,7.89391087852
1606295383548852013,,441321,,1606295383,658161362,"""spatial""",,-0.489753271629,-27.5632301031,7.78985892293
1606295383552241290,,441322,,1606295383,658253062,"""spatial""",,-0.545757941337,-27.556780697,7.68359398605
1606295383573068070,,441323,,1606295383,675004787,"""spatial""",,-0.598008034714,-27.5449712999,7.56390345858
1606295383592291002,,441324,,1606295383,694470723,"""spatial""",,-0.652329969926,-27.5328357613,7.43770888348
1606295383596306435,,441325,,1606295383,694606136,"""spatial""",,-0.700126246355,-27.5188611943,7.31153394516
1606295383605363465,,441326,,1606295383,713872410,"""spatial""",,-0.753493235744,-27.4987599476,7.13983195405
1606295383609090915,,441327,,1606295383,713964485,"""spatial""",,-0.796463556638,-27.4806599463,6.9867725374
1606295383631072869,,441328,,1606295383,728365022,"""spatial""",,-0.845558636227,-27.4602564637,6.80808795852
1606295383637542727,,441329,,1606295383,729751647,"""spatial""",,-0.891469140116,-27.4364173959,6.61786719013
1606295383640867536,,441330,,1606295383,748344809,"""spatial""",,-0.947807208433,-27.4044230823,6.42105358165
1606295383640875010,,441331,,1606295383,748491834,"""spatial""",,-0.984746579011,-27.3699067213,6.21077084013
1606295383660571117,,441332,,1606295383,768362733,"""spatial""",,-1.01901353136,-27.3349224924,5.99503803453
1606295383672126412,,441333,,1606295383,768516096,"""spatial""",,-1.05171103429,-27.3021034334,5.77327673322
1606295383687078749,,441334,,1606295383,784951932,"""spatial""",,-1.08408538391,-27.2724911483,5.54607860133
1606295383692602893,,441335,,1606295383,785104445,"""spatial""",,-1.1195350262,-27.248288373,5.31442419789
1606295383696089663,,441336,,1606295383,804315582,"""spatial""",,-1.15994904207,-27.2321981548,5.07988105132
1606295383699661688,,441337,,1606295383,804453232,"""spatial""",,-1.20460279115,-27.2242375693,4.8402502676
1606295383715002759,,441338,,1606295383,824271593,"""spatial""",,-1.25160388415,-27.2119039552,4.58946578495
1606295383728054324,,441339,,1606295383,834340630,"""spatial""",,-1.30500059554,-27.192830652,4.33624932808
1606295383744710895,,441340,,1606295383,853593630,"""spatial""",,-1.36489142944,-27.1631176216,4.08811197063
1606295383746656631,,441341,,1606295383,853753442,"""spatial""",,-1.43649966631,-27.1261219019,3.84679583772
1606295383764181517,,441342,,1606295383,873519854,"""spatial""",,-1.50991310083,-27.0766064455,3.60631811054
1606295383765781724,,441343,,1606295383,873630066,"""spatial""",,-1.58393218103,-27.015711894,3.36247928995
1606295383789080090,,441344,,1606295383,893572278,"""spatial""",,-1.65899073064,-26.9406634829,3.11895209675
1606295383794567315,,441345,,1606295383,893657703,"""spatial""",,-1.73181965038,-26.8501361557,2.87110203413
1606295383805070236,,441346,,1606295383,912953065,"""spatial""",,-1.79990361636,-26.7562586206,2.61365598261
1606295383807116244,,441347,,1606295383,913057415,"""spatial""",,-1.86156293565,-26.6686990106,2.34220014589
1606295383816660987,,441348,,1606295383,925431640,"""spatial""",,-1.91461920479,-26.5888882501,2.05283149774
1606295383836891254,,441349,,1606295383,943993501,"""spatial""",,-1.95867477871,-26.5177074337,1.74296075613
1606295383838574370,,441350,,1606295383,944088889,"""spatial""",,-2.00957889793,-26.4406167961,1.42132789517
1606295383847095321,,441351,,1606295383,956208863,"""spatial""",,-2.04790394314,-26.3805606502,1.08326330661
1606295383859121298,,441352,,1606295383,968478000,"""spatial""",,-2.08110655991,-26.3225569763,0.722277990577
1606295383861130803,,441353,,1606295383,968634075,"""spatial""",,-2.11173846423,-26.2674680855,0.343893034438
1606295383880464439,,441354,,1606295383,988326212,"""spatial""",,-2.15118408735,-26.2260925071,359.957990694
1606295383882515410,,441355,,1606295383,988730100,"""spatial""",,-2.18302237384,-26.1898361554,359.546977231
1606295383898740540,,441356,,1606295384,8021599,"""spatial""",,-2.21260648445,-26.1668628141,359.119789879
1606295383900240402,,441357,,1606295384,8178499,"""spatial""",,-2.2310725412,-26.1502091054,358.664544111
1606295383914867956,,441358,,1606295384,24458886,"""spatial""",,-2.25074071125,-26.1546367755,358.203752228
1606295383926190247,,441359,,1606295384,34430998,"""spatial""",,-2.26221905759,-26.1732507485,357.727305553
1606295383944467660,,441360,,1606295384,53799697,"""spatial""",,-2.27460496532,-26.1860590608,357.24050431
1606295383946344180,,441361,,1606295384,53948810,"""spatial""",,-2.26818778915,-26.2000558259,356.736572953
1606295383964300454,,441362,,1606295384,73798359,"""spatial""",,-2.24319441943,-26.2352398379,356.208899859
1606295383965811046,,441363,,1606295384,73910909,"""spatial""",,-2.21642904251,-26.3018888238,355.673085179
1606295383988158975,,441364,,1606295384,93849233,"""spatial""",,-2.19081455246,-26.3620969414,355.132161517
1606295383991762382,,441365,,1606295384,93933496,"""spatial""",,-2.15599019265,-26.4239067383,354.574763439
1606295384004400608,,441366,,1606295384,113419482,"""spatial""",,-2.11624702942,-26.4929292149,354.004360681
1606295384007245072,,441367,,1606295384,113557920,"""spatial""",,-2.07159296017,-26.5600255782,353.42409513
1606295384018140924,,441368,,1606295384,125945669,"""spatial""",,-2.0209172254,-26.6292819889,352.830797578
1606295384035071337,,441369,,1606295384,144099344,"""spatial""",,-1.95949119976,-26.7020098431,352.220424553
1606295384041061253,,441370,,1606295384,144254794,"""spatial""",,-1.90787140477,-26.7842743491,351.600817113
1606295384115122382,,441371,,1606295384,164104793,"""spatial""",,-1.83771874525,-26.8621675339,351.030523638
1606295384157857175,,441372,,1606295384,164259193,"""spatial""",,-1.75792452667,-26.9411142754,350.398212045
1606295384157867994,,441373,,1606295384,183522455,"""spatial""",,-1.67756884518,-27.0043379215,349.769178943
1606295384157882311,,441374,,1606295384,184403930,"""spatial""",,-1.59397373305,-27.0595036518,349.139927275
1606295384157887726,,441375,,1606295384,203555091,"""spatial""",,-1.51085908203,-27.1103868536,348.516959382
1606295384157891494,,441376,,1606295384,203703091,"""spatial""",,-1.42711071752,-27.1601635647,347.899728847
1606295384157908433,,441377,,1606295384,223532091,"""spatial""",,-1.34522816859,-27.208340304,347.291350237
1606295384157919917,,441378,,1606295384,223679141,"""spatial""",,-1.26507408441,-27.2548129112,346.691167854
1606295384175012179,,441379,,1606295384,229851128,"""spatial""",,-1.18514315532,-27.298710537,346.098061547
1606295384175019761,,441380,,1606295384,248888977,"""spatial""",,-1.09838395805,-27.3371696246,345.510392071
1606295384175027316,,441381,,1606295384,249053365,"""spatial""",,-1.02315187894,-27.3786630238,344.93482569
1606295384175032901,,441382,,1606295384,268888514,"""spatial""",,-0.951987284205,-27.4183344701,344.371007235
1606295384175036312,,441383,,1606295384,269040526,"""spatial""",,-0.885482639391,-27.4597595674,343.82057595
1606295384201225280,,441384,,1606295384,288464513,"""spatial""",,-0.825682305495,-27.5011027024,343.28659176
1606295384202021042,,441385,,1606295384,288500063,"""spatial""",,-0.771145219324,-27.5390648939,342.768562893
1606295384204999550,,441386,,1606295384,308692200,"""spatial""",,-0.718192363514,-27.5712163018,342.264877423
1606295384205030738,,441387,,1606295384,308827837,"""spatial""",,-0.666401226833,-27.5988649076,341.776518897
1606295384216524928,,441388,,1606295384,324730012,"""spatial""",,-0.615866418072,-27.6254838623,341.29856958
1606295384234825540,,441389,,1606295384,343331999,"""spatial""",,-0.566890173103,-27.6582090062,340.833652263
1606295384238532559,,441390,,1606295384,343500849,"""spatial""",,-0.518944699729,-27.6931420087,340.378707023
1606295384254059838,,441391,,1606295384,363178985,"""spatial""",,-0.475485326618,-27.7295674075,339.941984728
1606295384257167561,,441392,,1606295384,363351035,"""spatial""",,-0.436299757617,-27.7685643726,339.524578207
1606295384269310084,,441393,,1606295384,378672747,"""spatial""",,-0.397531630568,-27.8123424701,339.123837348
1606295384273161645,,441394,,1606295384,379584335,"""spatial""",,-0.368008111201,-27.8570033695,338.751482755
1606295384293690830,,441395,,1606295384,398706146,"""spatial""",,-0.349205214065,-27.9027707596,338.41153058
1606295384300131760,,441396,,1606295384,398846046,"""spatial""",,-0.335169949053,-27.9469859892,338.099145048
1606295384309340412,,441397,,1606295384,418988671,"""spatial""",,-0.326991224409,-27.9898744545,337.813889028
1606295384310999527,,441398,,1606295384,419150721,"""spatial""",,-0.319767739073,-28.023721457,337.560816858
1606295384321266957,,441399,,1606295384,429200983,"""spatial""",,-0.306821542388,-28.0752210833,337.330284314
1606295384337559167,,441400,,1606295384,447013857,"""spatial""",,-0.296463800635,-28.1314625685,337.140131847
1606295384342644843,,441401,,1606295384,447118457,"""spatial""",,-0.305399849184,-28.1517243247,337.002927007
1606295384363656095,,441402,,1606295384,473054769,"""spatial""",,-0.309593985541,-28.1841011289,336.890802622
1606295384366109631,,441403,,1606295384,473210744,"""spatial""",,-0.32666030708,-28.2188599616,336.834303297
1606295384382675228,,441404,,1606295384,489213531,"""spatial""",,-0.350216348867,-28.2491638034,336.823156428
1606295384385669565,,441405,,1606295384,489566430,"""spatial""",,-0.37848767578,-28.283179853,336.853291223
1606295384400673470,,441406,,1606295384,508651905,"""spatial""",,-0.417582157805,-28.31547811,336.934242625
1606295384402294648,,441407,,1606295384,508770467,"""spatial""",,-0.465278355955,-28.3445149517,337.06587403
1606295384416120656,,441408,,1606295384,525163542,"""spatial""",,-0.520243662971,-28.3722950386,337.249360232
1606295384436629866,,441409,,1606295384,543768403,"""spatial""",,-0.584063723276,-28.4029950314,337.485493532
1606295384440848454,,441410,,1606295384,543834091,"""spatial""",,-0.654089383967,-28.4272883067,337.773590911
1606295384454923722,,441411,,1606295384,563591340,"""spatial""",,-0.733769570412,-28.4502667706,338.109199087
1606295384456638116,,441412,,1606295384,563700328,"""spatial""",,-0.818477950024,-28.4817761408,338.487536925
1606295384470676953,,441413,,1606295384,579015727,"""spatial""",,-0.908076958526,-28.5141819733,338.912483974
1606295384473362357,,441414,,1606295384,579452177,"""spatial""",,-1.00891691094,-28.5498782495,339.385952688
1606295384489909236,,441415,,1606295384,598896639,"""spatial""",,-1.10852145288,-28.5808360819,339.896686913
1606295384497214238,,441416,,1606295384,599006514,"""spatial""",,-1.20578750881,-28.6126511031,340.399962572
1606295384510027213,,441417,,1606295384,618859513,"""spatial""",,-1.33077634208,-28.6527323607,341.063583752
1606295384512216856,,441418,,1606295384,618980438,"""spatial""",,-1.43149303092,-28.6879966273,341.637292321
1606295384521761569,,441419,,1606295384,628968288,"""spatial""",,-1.55235098713,-28.7243093281,342.310202558
1606295384539054559,,441420,,1606295384,648133512,"""spatial""",,-1.67015307401,-28.7460703108,343.018165326
1606295384541366659,,441421,,1606295384,648252549,"""spatial""",,-1.78450356749,-28.7805695963,343.755306662
1606295384558579613,,441422,,1606295384,668085536,"""spatial""",,-1.90276391738,-28.8018661261,344.532937359
1606295384559646592,,441423,,1606295384,668190286,"""spatial""",,-2.0211699424,-28.8205979199,345.337342398
1606295384576303475,,441424,,1606295384,684523211,"""spatial""",,-2.14779183121,-28.8408357704,346.177045855
1606295384594910374,,441425,,1606295384,704069260,"""spatial""",,-2.2748747578,-28.8568935451,347.044889691
1606295384599782093,,441426,,1606295384,704230335,"""spatial""",,-2.40461057254,-28.8735353011,347.942403869
1606295384614943649,,441427,,1606295384,724061947,"""spatial""",,-2.53007837283,-28.8895896607,348.860353972
1606295384617561773,,441428,,1606295384,724468022,"""spatial""",,-2.64518221483,-28.9093015866,349.791117511
1606295384632231689,,441429,,1606295384,739263658,"""spatial""",,-2.75524196212,-28.922313097,350.741633956
1606295384634946370,,441430,,1606295384,739324271,"""spatial""",,-2.86368871756,-28.925670135,351.707067535
1606295384654929133,,441431,,1606295384,758525683,"""spatial""",,-2.95684225255,-28.941051721,352.685177945
1606295384657127769,,441432,,1606295384,758652858,"""spatial""",,-3.03662313093,-28.9515975331,353.670555676
1606295384668976563,,441433,,1606295384,777967794,"""spatial""",,-3.10932857365,-28.96177793,354.672844956
1606295384671382604,,441434,,1606295384,778777419,"""spatial""",,-3.17325338131,-28.972101761,355.693138614
1606295384688559474,,441435,,1606295384,797937419,"""spatial""",,-3.22400467505,-28.9818962522,356.722830613
1606295384689946533,,441436,,1606295384,798094956,"""spatial""",,-3.25815604779,-28.9887879131,357.759298159
1606295384709096904,,441437,,1606295384,818431243,"""spatial""",,-3.28134624757,-28.9990127063,358.812622612
1606295384711807935,,441438,,1606295384,818611893,"""spatial""",,-3.3035676277,-29.0065737257,359.88996201
1606295384736199632,,441439,,1606295384,843765504,"""spatial""",,-3.31842990589,-29.0085203296,0.981926457936
1606295384738425729,,441440,,1606295384,843835167,"""spatial""",,-3.34091019288,-28.9989444044,2.09051343794
1606295384757271539,,441441,,1606295384,863737191,"""spatial""",,-3.35458038962,-28.9987941402,3.21163370836
1606295384775911754,,441442,,1606295384,863921041,"""spatial""",,-3.3641251521,-28.9931728946,4.33786466782
1606295384824094294,,441443,,1606295384,883182140,"""spatial""",,-3.37529144417,-28.9816401201,5.47427623768
1606295384824098861,,441444,,1606295384,884185653,"""spatial""",,-3.38352822543,-28.9651554586,6.61316930065
1606295384861542953,,441445,,1606295384,903165965,"""spatial""",,-3.38929183787,-28.9403857776,7.75646356676
1606295384861549419,,441446,,1606295384,903326127,"""spatial""",,-3.39545352227,-28.911371134,8.90437674829
1606295384861552864,,441447,,1606295384,923870314,"""spatial""",,-3.40217229398,-28.8804133016,10.0566373452
1606295384861556700,,441448,,1606295384,924018489,"""spatial""",,-3.4153182737,-28.8459959783,11.2216610044
1606295384861568168,,441449,,1606295384,935104438,"""spatial""",,-3.43336043184,-28.8136516175,12.3952087397
1606295384869635506,,441450,,1606295384,954030338,"""spatial""",,-3.4263430528,-28.7747195392,13.5595912149
1606295384869643932,,441451,,1606295384,954175438,"""spatial""",,-3.44194619307,-28.7475183109,14.7330954077
